,Name,Latitude,Longitude,Elevation
0,TDRS 3,8.420355292946365,-48.13843538471333,35930262.22200346
1,FLTSATCOM 8 (USA 46),-12.507818497700413,71.57044254715748,35812405.75643093
2,SKYNET 4C,-8.263698827080422,33.00165338755382,35783044.40265978
3,TDRS 5,2.5979610436927314,-167.95484811487893,35685181.92916637
4,TDRS 6,10.921550197210461,-45.13074666619225,35749262.07578258
5,UFO 2 (USA 95),-4.10250604921467,28.32360335848484,35777133.971968696
6,USA 99 (MILSTAR-1 1),11.135050723548655,-90.97290227110439,35773343.590696715
7,ASTRA 1D,9.240547145352801,-73.26397128680897,35771168.61109883
8,USA 107 (DSP 17),14.400156972015766,-96.78685055387879,35778040.84104118
9,UFO 4 (USA 108),-3.584209803942191,172.59077961510854,35799747.67309536
10,AMSC 1,8.852567007834978,-108.11143029109337,35771907.61159635
11,TDRS 7,-14.100522517203148,84.38296331464706,35883217.48280153
12,USA 113,-11.700742194159726,103.58307356241997,35793347.39237007
13,USA 115 (MILSTAR-1 2),10.038060654513634,-120.81734613704701,35783337.3568447
14,INMARSAT 3-F1,3.6146269167044838,-93.93584320271485,35836955.21596483
15,INMARSAT 3-F2,-5.7905841981952655,146.85365480884158,35889930.318721525
16,AMC-1 (GE-1),-1.7739177794143859,-130.83369177918584,35783055.60640926
17,INMARSAT 3-F3,3.3703198234340848,27.2235543060251,35863830.02814711
18,INTELSAT 26 (IS-26),-4.943654543499824,65.8128906743485,35803732.052590564
19,GALAXY 25 (G-25),2.1951221947659327,32.93581868180992,35794119.747008905
20,INTELSAT 5 (IS-5),-1.680288990385925,-136.95391377490017,35779729.81196804
21,AMC-3 (GE-3),1.962024971394802,-72.07655999248496,35774969.92617616
22,NSS-5,0.648047354257217,50.60847201881471,35789054.54248451
23,USA 134,6.788078414065941,-112.91164779332607,35771170.68453779
24,ASTRA 1G,3.9717736744764327,19.65217862543889,35780594.44341478
25,INMARSAT 3-F5,5.123059115784283,-54.08153256779196,35766145.67441439
26,UFO 8 (USA 138),-5.1042807697610115,171.91785179826962,35799321.213490665
27,ASTRA 2A,2.1785901163898154,27.997625329038954,35786326.41321969
28,JCSAT-4A,-5.213507328373215,136.00166043129892,35792941.73469316
29,SKYNET 4E,2.7528587811940697,-0.9309289767015487,35779531.22043664
30,ASIASAT 3S,-5.683113729820651,147.81252260077827,35800165.88628937
31,NIMIQ 1,0.31842052854333897,-86.57587495406486,35764677.36394676
32,ABS-7,1.5726226696481989,33.403604735738284,35786775.729322225
33,ABS-6,-0.004509419244292399,158.9799938692948,35793983.615613945
34,AMC-4 (GE-4),-0.5248312537233257,-134.92749510466106,35784618.56492694
35,UFO 10 (USA 146),6.5682256371502525,-22.596173325510815,35766175.11722513
36,GALAXY 11 (G-11),0.03896425976582711,-93.08843350843752,35787808.53658983
37,USA 148,-5.633101938682432,-179.2973732546435,35788784.276705824
38,ASIASTAR,-2.9223126355213673,104.93019768318531,35803158.41863289
39,USA 149 (DSP 20),-0.7667325925682469,-165.45835964084333,35798557.184227355
40,EUTELSAT 80A,4.3613727465953245,-12.505980137762462,35772518.09480287
41,TDRS 8,-7.480591762245294,88.20017003895363,35826974.45124395
42,INTELSAT 9 (IS-9),6.250418916232544,-50.100362365568216,35775010.56506512
43,NSS-11 (AAP-1),-0.008099377290669358,175.99487967047546,35787595.009155676
44,USA 153,-8.585068917088249,134.38464834144833,35792393.60642157
45,AMC-6 (GE-6),0.002124937989639703,-139.028863371354,35788165.66099035
46,INTELSAT 12 (IS-12),0.8755818250736029,64.29980604857573,35809362.04623691
47,INTELSAT 1R (IS-1R),-3.663359134927361,157.0644498610045,35784654.03886502
48,ANIK F1,-0.22724113257326636,-109.28023362828158,35751032.302257754
49,ASTRA 2D,-0.03077574619938786,57.23724628326779,35788247.37226943
50,AMC-8 (GE-8),-1.110703146531194,-135.01662014777753,35784597.740784325
51,USA 157 (MILSTAR-2 2),5.215288728633593,-124.61439096318207,35787189.32400898
52,EUTELSAT 133 WEST A,-1.6177209709449896,-132.83491550148528,35783076.93765896
53,INTELSAT 10 (IS-10),-4.642322632774574,177.88591538367396,35793689.76951803
54,INTELSAT 901 (IS-901),-0.006167111003742386,-27.52322521560583,35783101.1778701
55,ASTRA 2C,2.4730223063257126,-63.124416874594836,35836904.26622412
56,USA 159 (DSP 21),10.575448866414414,-48.868208639703845,35779731.13215844
57,INTELSAT 902 (IS-902),1.1208832034280924,-50.12933755164699,35773737.89113952
58,USA 164 (MILSTAR-2 3),0.9367008763435332,19.10992730409848,35786754.14285574
59,ECHOSTAR 7,0.011915449582823527,-118.79439401720676,35783514.49223764
60,INTELSAT 904 (IS-904),2.2778786197209406,-29.495949072280712,35773478.173923574
61,TDRS 9,7.2149318823062965,-62.40275150539192,35841991.489493646
62,ASTRA 3A,4.099085616333569,-87.06410711623519,35782879.28372319
63,NSS-7,5.191891618538246,-19.984109988185736,35776837.320453964
64,DIRECTV 5 (TEMPO 1),-0.12478585791984668,-110.15199989873545,35779503.79010047
65,INTELSAT 905 (IS-905),2.174810001337274,-24.4832412475317,35776801.04322001
66,GALAXY 3C (G-3C),0.002209081546944731,-95.04538417813983,35790120.52750311
67,EUTELSAT 5 WEST A,1.5667378286601439,-4.954514973692679,35772730.33801188
68,METEOSAT-8 (MSG-1),0.7140399431683014,41.443893972872836,35785209.373328604
69,INTELSAT 906 (IS-906),0.537108538567549,64.20356807494699,35790167.899259955
70,HISPASAT 30W-4,-1.54374188691776,-143.09948585530552,35785834.65919031
71,TDRS 10,-4.631947005157692,-170.79901873431498,35751032.25923364
72,NSS-6,-0.8261954953428828,-169.54088425178062,35791936.5222764
73,NIMIQ 2,-1.9850441298021666,89.42652233912852,35836558.518883176
74,USA 167,-0.18711131861968835,-130.23934419559015,35773582.21265969
75,USA 169 (MILSTAR-2 4),-8.741666576803043,152.44790529199346,35797084.73347352
76,GALAXY 12 (G-12),-1.340370516348622,-128.97162523146395,35784928.25244366
77,ASIASAT 4,0.16297373256039907,38.27689602558706,35784048.90178083
78,HELLAS-SAT 2,0.1178045909589771,-95.26414698202855,35773282.00283045
79,THURAYA-2,-1.6947144028609904,43.99162996280481,35795201.287086576
80,OPTUS C1,-2.312175640466257,155.6672479281476,35808898.74022229
81,GALAXY 23 (G-23),-0.012435953589505604,-120.99112852773803,35781011.18304214
82,USA 170,6.660119329950101,-42.704090731203806,35765951.68428489
83,GALAXY 13 (HORIZONS 1),-0.023201349347177266,-127.00404816438751,35784627.24411374
84,YAMAL 202,-1.8305994178026224,163.4149360041133,35806292.536754854
85,UFO 11 (USA 174),-4.404698135701071,74.44237250276261,35808496.11494669
86,USA 176 (DSP 22),-8.009679834257286,87.00666503537046,35789794.47021158
87,ABS-4 (MOBISAT-1),0.6789031189321225,61.07576201027757,35794046.85226905
88,EUTELSAT 7A,-0.9403951559397854,-139.26567193829126,35786370.014470875
89,AMC-11 (GE-11),0.028531656553584302,-130.99048248765737,35782943.107206084
90,INTELSAT 10-02,0.013092396989532492,-1.0110140437065236,35783959.83863334
91,ANIK F2,-0.0011956423646435994,-111.06976803375053,35791152.33288801
92,AMC-15,0.016482022600809727,-105.0772903885955,35779729.237414114
93,AMC-16,-0.00513686147967193,-100.25585918668544,35960232.574873336
94,NSS-10 (AMC-12),1.7129846986735342,-37.48101991318861,35775004.2109995
95,XTAR-EUR,0.032700234240289526,29.019969966822014,35784367.37359404
96,XM-3 (RHYTHM),0.020774039136289963,-85.13570565310694,35782913.050746985
97,INMARSAT 4-F1,-3.0395774452760866,143.53388921612787,35798313.881476164
98,DIRECTV 8,0.0013466656300171486,-119.17930104191959,35784282.21001321
99,GALAXY 28 (G-28),0.024876382190957513,-89.02053079173575,35784367.50555634
100,EXPRESS-AM3,2.3984444742606703,23.040034378310033,35781653.3786206
101,THAICOM 4,-0.03815607852657368,119.47222854567931,35796657.898506954
102,GALAXY 14 (G-14),0.44091224895113806,25.431487102712552,35715138.22345265
103,ANIK F1R,0.011937712584344668,-107.31553059793046,35776658.30087926
104,GALAXY 15 (G-15),-0.000446770807605849,-133.01717900376744,35785441.11670063
105,SYRACUSE 3A,0.24560390990316067,47.04566416170172,35788753.4287646
106,INMARSAT 4-F2,-1.8801456359524091,63.880585713996766,35789134.66620715
107,TELKOM 2,-0.035618418051018404,-100.4673370484382,36107026.812814765
108,SPACEWAY 2,-0.8319000917319487,-138.86858905359918,35786911.41202131
109,METEOSAT-9 (MSG-2),4.597232692430878,3.472918107533077,35783047.6158282
110,EUTELSAT 174A,-0.045686712991387386,173.96898380759978,35803780.41658449
111,ECHOSTAR 10,0.0010405560651767318,-110.22350572940694,35784093.60830031
112,SPAINSAT,-0.018929862040005043,-29.998673996129202,35768805.11817188
113,EUTELSAT HOTBIRD 13E,0.06948189678471109,13.038139392127736,35767820.505749196
114,JCSAT-5A,-0.024768176343609335,132.0475439545096,35793768.955385014
115,ASTRA 1KR,-0.029472395264448722,19.20522848300757,35773044.820495345
116,EWS-G1 (GOES 13),0.03777678667204752,61.36391504625329,35771381.34890851
117,EUTELSAT 113 WEST A,-0.02626497790748958,-113.02138601405227,35779894.02818389
118,GALAXY 16 (G-16),-0.0050869622977560945,-99.02030130053758,35778687.885876045
119,EUTELSAT HOTBIRD 13B,0.02406101311592631,12.995439428547009,35781780.1102511
120,JCSAT-3A,-0.028065828978757534,127.98470248343632,35795632.35386406
121,SYRACUSE 3B,0.03792044258648924,-5.160347049122301,35772954.09555655
122,KOREASAT 5 (MUGUNGWHA 5),-0.009920057701331267,113.06729199626335,35791264.96203383
123,DIRECTV 9S,-0.020459608592982546,-101.22736845464262,35778611.70566774
124,OPTUS D1,-0.0017280203873489843,159.97976612306218,35798813.14766351
125,XM-4 (BLUES),0.014721572280240056,-115.21824018095185,35786595.18685733
126,BADR-4,-0.011705496811582169,26.067384154837182,35777858.60353513
127,WILDBLUE-1,0.00029156415949481017,-111.18585731898575,35782131.85388885
128,AMC-18,0.01470762000478831,-83.03006683342922,35778119.747890785
129,MEASAT-3,0.07085669391736905,76.6764745371069,35834102.39673635
130,INSAT-4B,0.04924455678817449,85.5809971868258,35780894.9311846
131,SKYNET 5A,-0.29257563877559867,95.19289288546007,35799485.65712271
132,ANIK F3,-0.001880211498217982,-118.73779973169236,35781149.55117624
133,ASTRA 1L,-0.0428562505473851,19.19998208785222,35783208.529888004
134,GALAXY 17 (G-17),0.021996252847429044,-91.01118390016472,35776258.03083724
135,ZHONGXING-6B,-0.016942098607485447,115.53119938211111,35801287.92727876
136,DIRECTV 10,-0.00542096992102978,-102.7825953734744,35786731.85861824
137,SPACEWAY 3,-0.012241562614120712,-94.96535048669308,35786372.91864168
138,BSAT-3A,0.03399881803051801,109.87310656122547,35789977.30890619
139,OPTUS D2,-0.0016359298569844154,151.97807985282657,35800384.86071175
140,INTELSAT 11 (IS-11),-0.0006143000295423761,-42.97403867873226,35778990.38104279
141,WGS F1 (USA 195),0.052897511614510395,6.039891377994784,35780221.80794847
142,STAR ONE C1,0.09593359111051135,-65.03643677740067,35777312.65196507
143,SKYNET 5B,0.6537937234061083,25.17162688383437,35780743.329610795
144,ASTRA 4A (SIRIUS 4),-0.004984772424895289,4.841273291529973,35779585.879704036
145,HORIZONS 2,-0.0023774761774393274,84.86830467991157,35794946.86376666
146,THURAYA-3,-3.8716968020796845,98.48314787776421,35805886.98012072
147,EXPRESS-AM33,0.282441456309591,-7.584288775223076,35835151.37721745
148,THOR 5,0.00944455473519109,-0.7345845155785893,35779458.798149616
149,AMC-14,6.673259767381058,19.542847314809205,35928892.30653935
150,DIRECTV 11,-0.0053506168578172355,-99.17089743375108,35786480.24613278
151,ICO G1,3.607416371691035,-92.92072911435548,35780115.34856461
152,VINASAT-1,-0.006689324433938746,131.9340675235556,35793520.29148788
153,STAR ONE C2,0.003464156574544204,-70.06103403874647,35779761.8662383
154,TIANLIAN 1-01,-1.26786102737879,79.66599010796197,35764631.628431216
155,AMOS-3,0.06136236725233532,-4.069994171923335,35780163.937763765
156,GALAXY 18 (G-18),-0.022045638098099563,-123.0288351914392,35783423.78690755
157,CHINASAT 9 (ZX 9),0.0067696525200110075,92.22323305688522,35799622.160366215
158,SKYNET 5C,0.038231761777501816,-17.811759727623606,35770772.826019205
159,TURKSAT 3A,0.02908461031600771,42.02902391574443,35793448.78492661
160,INTELSAT 25 (IS-25),0.007542894501609459,-31.47140555302954,35776436.145928785
161,BADR-6,0.04081784749648319,26.018972176779013,35785950.961557105
162,ECHOSTAR 11,-0.0007904252897547508,-110.02210763335833,35778909.14647897
163,SUPERBIRD-C2,-0.031248784485497477,143.9388173153156,35793005.91953403
164,AMC-21,0.013606914842863482,-124.9151093174143,35783222.4105337
165,INMARSAT 4-F3,3.04793371924583,-98.04237228351747,35778061.7081102
166,NIMIQ 4,0.0263186610631474,-81.99858937157273,35776997.93378674
167,GALAXY 19 (G-19),0.010375689933143204,-97.04997641203101,35777669.87233151
168,ASTRA 1M,0.04494845080673259,19.275073083129833,35776415.69097513
169,CIEL-2,0.0008201907253442359,-128.87844304516693,35784957.08156752
170,EUTELSAT HOTBIRD 13C,0.04752825976839613,13.03610426661602,35780536.721847534
171,EUTELSAT 48D,0.6746092099604977,-12.439971636730942,35775669.65237483
172,FENGYUN 2E,-2.1982178561438284,86.3589481502068,35797613.32508672
173,EXPRESS-AM44,0.0050825883683364576,-10.986264610078976,35785703.15917497
174,NSS-9,0.01712543519027368,-176.93278690721095,35790780.096487306
175,EUTELSAT 33E,0.009623910272283445,33.250563182171696,35781540.75689676
176,TELSTAR 11N,0.03685906566048004,-37.533880755546186,35777094.237274945
177,EUTELSAT 10A,0.029775326544618355,10.08418949093015,35774793.4810295
178,WGS F2 (USA 204),0.022798012034455594,57.49568145025716,35784942.718211
179,SES-7 (PROTOSTAR 2),-0.029440197071542936,108.21513553554848,35785387.57502934
180,MEASAT-3A,0.020295525883806134,91.54855275139259,35787258.97900596
181,GOES 14,-0.16901798067921955,-104.36265118266832,35817005.062558964
182,FM-5,0.009565163379002787,-86.12753917945967,35786189.73347902
183,TERRESTAR-1,1.9490023696168959,-111.07403085818089,35780466.110414214
184,ASIASAT 5,-0.004729039024706129,100.50952843925559,35794265.63475817
185,JCSAT-RA (JCSAT-12),0.03126719881402318,168.89657184818705,35792989.242616884
186,OPTUS D3,-0.012640261613371832,155.98356378068465,35794307.763186954
187,NIMIQ 5,0.02818976446904432,-72.71338003997086,35776536.27506562
188,AMAZONAS 2,0.012390359801538107,-61.053779851279046,35766690.19090784
189,COMSATBW-1,0.016805678748054668,63.09622095041545,35790502.167855814
190,NSS-12,-0.001660967932432065,57.03031961645056,35787687.71071654
191,THOR 6,-0.0046785692503947115,-0.8261248922437439,35782471.3524296
192,INTELSAT 14 (IS-14),0.03388902857020958,-44.97935591671198,35776129.57745514
193,EUTELSAT 36B,-0.008467503454238199,35.97643295462658,35783691.35510299
194,INTELSAT 15 (IS-15),-0.02197169748987654,85.17190078539795,35792207.240293376
195,WGS F3 (USA 211),-0.05109608986145018,-121.91173395482227,35787592.06643232
196,DIRECTV 12,0.0009098570541214553,-102.71552869506357,35786807.60254278
197,BEIDOU 3,-1.9533116862060844,140.44613385602835,35811153.525770366
198,RADUGA-1M 2,0.016783062193822664,85.02063481184123,35792542.11048528
199,SDO,-15.547641347635984,-98.48192587598794,35787499.36247669
200,INTELSAT 16 (IS-16),0.02725857322375099,-76.21597815973989,35779663.19146839
201,GOES 15,-0.20628179368996158,-127.99367633761452,35769080.00941412
202,ECHOSTAR 14,0.0006696517157031962,-118.91209320809,35780342.30519191
203,SES-1,0.00709412324323866,-101.01863836714267,35777989.61937658
204,ASTRA 3B,0.0031738896179774696,23.562457494794877,35779184.30486328
205,COMSATBW-2,0.03721159973254952,13.20302717673101,35780365.1403257
206,BADR-5,0.04712448433667106,26.020495038710006,35776759.44633142
207,COMS 1,-0.2257287157364129,128.1396454673289,35789497.631785475
208,ARABSAT-5A,0.025042241842235823,30.550137111059232,35777656.24246568
209,ECHOSTAR 15,-0.018820022391100907,-61.62716116744132,35779419.665351994
210,BEIDOU 5,44.73408262258684,128.04821304306876,36005321.019794345
211,NILESAT 201,0.029327251678059267,-6.916819972535451,35770611.085977264
212,RASCOM-QAF 1R,0.05716995154396106,2.967385832634061,35774199.3922438
213,AEHF-1 (USA 214),3.7310162616166256,3.9784303784389423,35778396.19227096
214,CHINASAT 6A (ZX 6A),-0.0032596778976412334,125.0045876182607,35792698.57706836
215,QZS-1 (MICHIBIKI-1),1.4141425849282223,130.74715954060085,35716148.21589611
216,XM-5,0.0019169763563447666,-85.1199501750875,35788758.01729832
217,BSAT-3B,-0.028654195275535574,109.82561826617672,35784309.12145022
218,BEIDOU 6,-0.8709928324995214,160.070400409393,35809534.316660024
219,SKYTERRA 1,1.9774927147543595,-101.33213916419244,35784520.44926489
220,ZHONGXING-20A,-1.2081381399092372,126.35623004279081,35801315.8919569
221,HYLAS 1,-1.0885704635005289,158.72362905605723,35793354.54854889
222,INTELSAT 17 (IS-17),0.0025399731341276465,66.02600258121988,35790650.35040995
223,BEIDOU 7,7.235071346032522,113.91712837366147,36119139.96962874
224,EUTELSAT KA-SAT 9A,-0.056861903071714896,9.05495464319153,35777570.39953659
225,HISPASAT 30W-5,0.025871479535870108,-29.969870131719738,35761812.13571323
226,KOREASAT 6,-0.03893196516263112,116.00025065054041,35792800.51569418
227,BEIDOU 8,-52.29731390012969,100.71361946221512,35622335.53332614
228,INTELSAT NEW DAWN,0.003966213205083038,32.84913850709547,35782845.56487673
229,YAHSAT 1A,0.01734235851541998,52.48697993432247,35791717.44091968
230,SBIRS GEO-1 (USA 230),-1.6601840117094693,66.21669253836826,35791089.41693769
231,TELSTAR 14R,0.014597331311709767,-62.99279414739943,35780398.30945874
232,GSAT-8,0.017571958219576477,55.060730695542496,35775658.55576965
233,ST-2,-0.009579220127150222,88.0070625526052,35787732.07972687
234,CHINASAT 10 (ZX 10),0.01856959615483961,110.56987461075404,35798984.0700683
235,TIANLIAN 1-02,-2.3989304087060384,170.92167993611724,35866369.66481556
236,GSAT-12,0.40910454900865445,48.071066301379695,35816820.32414864
237,SES-3,0.011948002295214625,-103.02591934962582,35777271.09241774
238,KAZSAT-2,0.017490414129980585,86.52796434549357,35785047.480686724
239,BEIDOU 9,54.03083827848509,96.47337754188626,36030110.52415836
240,ASTRA 1N,-0.0025638346131164527,19.215606183970436,35794776.40676972
241,BSAT-3C (JCSAT-110R),-0.027770159588119694,109.94891131029483,35786622.24381217
242,PAKSAT-1R,0.006905096931325599,38.04877561176816,35801884.09143235
243,CHINASAT 1A (ZX 1A),-0.003985049329764375,129.8803404983333,35784114.31247039
244,SES-2,0.022108127137423727,-87.01783824617486,35776701.3126825
245,ARABSAT-5C,-0.001725940894887572,20.03479973125852,35769305.104559876
246,EUTELSAT 7 WEST A,0.06818637783952237,-7.270082720777606,35770043.96059608
247,QUETZSAT 1,0.0179400395129308,-77.00366657343507,35776040.76690104
248,INTELSAT 18 (IS-18),-0.024877292252403146,-179.97730741330307,35790233.96955919
249,EUTELSAT 16A,-0.0009461055064721965,16.036678560225894,35780027.68115293
250,VIASAT-1,-0.008814203193350115,-115.1447652317367,35782097.84491724
251,ASIASAT 7,-0.0014548335689473027,105.51388101958372,35793031.1586049
252,BEIDOU 10,-8.598839059646181,100.5563010697414,36009269.61615929
253,LUCH 5A,-3.954039335359554,166.77669411324777,35796302.028598934
254,NIGCOMSAT 1R,0.004841285476390359,42.51140909338888,35791264.36265555
255,FENGYUN 2F,-1.7583151818530245,111.55607732522074,35799917.31558932
256,WGS F4 (USA 233),-0.0023983430904302465,88.4033944667783,35785561.92450306
257,SES-4,0.021476694852531536,-21.99502431000192,35777155.28179211
258,BEIDOU 11,0.13895548776118422,58.74783235296364,35814393.71069108
259,MUOS-1,2.3830896142828633,-99.48459139580449,35672777.212227724
260,INTELSAT 22 (IS-22),-0.0022308601355356932,72.12679149497166,35792757.326189585
261,APSTAR 7,0.010776849059413698,76.5241307655321,35792977.4148284
262,YAHSAT 1B,0.0240020350448998,47.603198166498565,35790444.497852646
263,AEHF-2 (USA 235),2.3778127001548373,-67.77662790963547,35750859.35258305
264,JCSAT-13,-0.026305504068368023,123.99937205434951,35796743.5218385
265,VINASAT-2,-0.011660392866755591,131.84126707579713,35794730.96205509
266,NIMIQ 6,0.0026718909340890202,-91.11809420680504,35779001.251727104
267,CHINASAT 2A (ZX 2A),0.013786849519316654,98.25408034842843,35790726.214306705
268,INTELSAT 19 (IS-19),-0.04886521993142892,165.98875444437226,35797139.01691611
269,ECHOSTAR 17,-0.00513362866673057,-107.1178803038861,35780614.159782894
270,METEOSAT-10 (MSG-3),0.028678323472941223,9.36218935518064,35780821.47841943
271,SES-5,-0.008816869350338206,5.012068771179504,35780669.7390621
272,TIANLIAN 1-03,1.16952526938544,20.446234414179838,35797587.52877124
273,INTELSAT 20 (IS-20),0.012966912357042724,68.49644605179435,35784261.414538115
274,HYLAS 2,-0.025948995188909595,31.10372676040073,35783846.13825003
275,INTELSAT 21 (IS-21),0.029718117141821643,-58.00248455488334,35777394.12476271
276,ASTRA 2F,-0.04513489182679361,28.188022068391536,35775809.03328922
277,GSAT-10,-0.002927270051104022,83.01193261230999,35790165.914663464
278,INTELSAT 23 (IS-23),-0.0044330952134811865,-53.05680667821303,35779134.96619693
279,BEIDOU 16,-0.12399181638637428,83.7954171472142,35805980.40048249
280,LUCH 5B,6.435455398151855,-16.211720732266297,35771597.41061308
281,YAMAL 300K,-0.024999374546752506,-177.0296810217811,35783179.541010715
282,STAR ONE C3,0.025710062653727616,-74.99011967907362,35778210.4828354
283,EUTELSAT 21B,-0.009010708214394326,21.613281850957886,35784038.78308978
284,ECHOSTAR 16,0.032972258821803144,-61.52319316912941,35778054.31969376
285,CHINASAT 12 (ZX 12),0.001849384402489468,87.52691459538332,35794314.51658711
286,EUTELSAT 70B,-0.06131936673350448,70.54226320266362,35784366.446524225
287,YAMAL 402,0.03444675851574238,54.93002616942483,35788146.997388236
288,SKYNET 5D,-0.05806839134263316,52.79705747732422,35787294.89024565
289,MEXSAT 3,-0.004110008081547581,-114.82461084095335,35784955.43980457
290,TDRS 11,1.7483665717443844,-174.43068204534055,35770221.33113919
291,AMAZONAS 3,0.017305457413434366,-61.01679113708611,35776906.501271375
292,AZERSPACE 1,0.00025293811079552686,45.987065064291365,35784591.514094315
293,SBIRS GEO-2 (USA 241),-0.7037986991380988,20.75071585778889,35783270.22516838
294,EUTELSAT 117 WEST A,0.01008968102077681,-116.79841362198766,35781553.25490023
295,ANIK G1,-0.01938522524317844,-107.32553284079269,35781880.23898953
296,CHINASAT 11 (ZX 11),-0.014361962682710195,97.87446696305722,35792913.52634231
297,EUTELSAT 7B,0.009559430362792273,7.042361873263899,35794024.36468892
298,WGS F5 (USA 243),0.030945164193075116,-52.53478090492369,35786867.509480126
299,SES-6,0.011436666843282024,-40.51086559758206,35775978.58495991
300,IRNSS-1A,15.217198251440493,58.80202392066222,35714958.586669125
301,MUOS-2,-0.15490397291278274,-176.99506037753662,36023911.33930297
302,ALPHASAT,-0.6042708802855856,24.877510308022732,35779999.93392495
303,INSAT-3D,-0.022658664899785644,82.09632503664659,35788866.62085523
304,WGS F6 (USA 244),-0.018997049007275224,-135.19975699683107,35786918.01835826
305,ES'HAIL 1,-0.015320434270247072,25.55839139812147,35783221.89531853
306,GSAT-7,0.02710954713401134,74.02160161490684,35760122.029387325
307,AMOS-4,0.004324351117330183,65.0677775562209,35791291.39173497
308,AEHF-3 (USA 246),-1.0227306539992533,151.24542279778632,35595184.51209889
309,ASTRA 2E,-0.02386334356439103,28.474316088396193,35786449.30704431
310,FM-6,0.003810072067793649,-116.18095366072464,35784487.60420415
311,RADUGA-1M 3,1.165440293137684,34.98720731523977,35788969.38807788
312,SES-8,-0.02147523044070585,95.00026183246209,35796404.33533589
313,INMARSAT 5-F1,0.008780158842426824,62.54866537269696,35785279.526218615
314,TKSAT-1 (TUPAC KATARI),0.0022996802579677935,-87.19534417284879,35777554.081105486
315,EXPRESS-AM5,-0.008078696986882789,139.9849084257686,35785569.65314225
316,GSAT-14,0.00457469696353272,74.01705085908834,35775169.97764388
317,THAICOM 6,0.033231745106604794,78.5548674168763,35797216.78187506
318,TDRS 12,1.2964046155968147,-40.80767273322845,35769408.66838038
319,ABS-2,-0.00948627020638583,74.9224450793217,35797892.54743581
320,ATHENA-FIDUS,0.034527980755183596,37.818977999005035,35785963.39256824
321,TURKSAT 4A,-0.025717276281078,42.01683654077764,35775933.8745085
322,EXPRESS-AT1,0.0009426378880998368,56.03545356206068,35782987.67602347
323,EXPRESS-AT2,-0.017997034027633266,139.7998714545281,35785187.73020036
324,AMAZONAS 4A,0.07201438982328204,-73.97814107244915,35774605.873960525
325,ASTRA 5B,0.026716254994233718,31.55292545513301,35782116.402879074
326,IRNSS-1B,-13.911935917233164,58.40520006359388,35863319.37449365
327,LUCH 5V,-0.4954745299342304,94.7595460520582,35801967.94770796
328,KAZSAT-3,0.001752984047366995,58.51148870150589,35783824.70291672
329,EUTELSAT 3B,0.015088560592802744,3.116771510522348,35768745.5500789
330,USA 254,-0.14511034649880225,172.19424428826431,35820709.3403441
331,ASIASAT 8 (AMOS-7),-0.022360806152328185,-3.871110877541296,35783194.92884435
332,ASIASAT 6,-0.008651306152535706,119.88776785145106,35789431.22842204
333,OPTUS 10,-0.026728839322709648,155.99414803201006,35802705.77071564
334,MEASAT-3B,-0.02819944054319709,91.53024397250272,35789253.51826499
335,LUCH (OLYMP),0.00042549887254195233,56.93307551016311,35789073.08867755
336,HIMAWARI-8,-0.011051665845626179,140.6603465523581,35789256.75948015
337,IRNSS-1C,1.9723009869641746,83.26286913912,35812582.63267221
338,INTELSAT 30 (IS-30),0.019708866563330547,-95.03772670331097,35779086.02223655
339,ARSAT 1,0.016516194928598345,-71.81807429590067,35780799.64635465
340,EXPRESS-AM6,0.0019457638146545531,53.05386759682401,35781990.70627868
341,GSAT-16,-0.041717169983179724,55.14703884759148,35809938.55319717
342,DIRECTV 14,-0.014195317904285944,-99.18303302706448,35784560.15272865
343,YAMAL 401,-0.03067293250364103,89.82029936447192,35785690.547054924
344,ASTRA 2G,-0.0020686793687410597,28.251311822671628,35794573.795029074
345,FENGYUN 2G,-0.2697949207104769,99.71473432536021,35784976.43795684
346,MUOS-3,0.48616625379804296,-15.598347884121175,35543887.48993579
347,INMARSAT 5-F2,0.04558142915463798,-55.02826460398199,35788662.96428365
348,ABS-3A,0.040947074155073385,-3.0026600242447072,35793390.3570724
349,EUTELSAT 115 WEST B,-0.003499990387003823,-114.94101797874585,35786073.683200195
350,EXPRESS-AM7,0.023488907737436775,40.160516828646806,35785999.14036936
351,IRNSS-1D,12.691621601464673,108.75427552012027,35870322.10064095
352,BEIDOU 17,-28.83844978650735,105.94834771295342,35916600.8071147
353,THOR 7,0.029910062209772804,-0.6309072362238521,35778825.544095874
354,TURKMENALEM52E/MONACOSAT,0.01990162866261885,52.03266245478086,35787375.503980376
355,DIRECTV 15,-0.0031037502614132545,-102.81340463376542,35786306.60472086
356,SKY MEXICO-1,0.0322085005334917,-78.79078042760412,35779771.709175706
357,METEOSAT-11 (MSG-4),0.1886120890257472,-0.297309304449999,35784086.593237564
358,STAR ONE C4,0.02715391273371636,-70.02247206648268,35777789.98774884
359,WGS F7 (USA 263),-0.04551899789183888,175.00238547503915,35787106.61881864
360,INTELSAT 34 (IS-34),0.009247996726941977,-55.51688315185635,35788272.541213505
361,EUTELSAT 8 WEST B,0.01387676240158806,-7.950031899110225,35779973.39647236
362,GSAT-6,-0.028390291174533493,82.61186243705185,35795655.04751035
363,INMARSAT 5-F3,-0.05316507530079716,179.5749167125749,35785863.64631393
364,MUOS-4,-2.6184231049558773,74.44672998574057,35813005.68176332
365,TJS-1,-0.0439544116683528,154.90431565439837,35786955.3380375
366,EXPRESS-AM8,0.010079386948411992,-13.992559071738468,35785873.838240035
367,BEIDOU 20,1.9583435039386452,95.60967689323157,35987564.04433446
368,SKY MUSTER 1 (NBN1A),-0.03683750637124012,140.22403149989762,35793624.50219556
369,ARSAT 2,0.012581074135057905,-81.01067794300903,35779500.278282516
370,MORELOS 3,4.103146708571432,-113.11629778695591,35783055.82537655
371,APSTAR 9,-0.011451204405551803,141.95427443680452,35795459.30065737
372,TURKSAT 4B,0.014092031334690046,50.02830588737484,35785058.2175123
373,CHINASAT 2C (ZX 2C),-0.008026325573258553,103.4140340436738,35793883.08629789
374,GSAT-15,-0.010983518604976665,93.47113180865033,35799114.66704829
375,BADR-7 (ARABSAT-6B),-0.024347973368601394,26.054146351495326,35761645.04983537
376,LAOSAT 1,-0.006048864363357125,128.43572787955057,35791479.697805345
377,TELSTAR 12V,0.05109129607631771,-15.028625211261744,35779517.71713624
378,CHINASAT 1C (ZX 1C),0.07037511040050791,81.40834922591651,35795349.22476802
379,ELEKTRO-L 2,2.1847846581453996,-14.581743849754245,35775744.77572777
380,COSMOS 2513,0.025795063716909733,80.28390516424342,35790646.84302341
381,EXPRESS-AMU1,0.031356791635816846,36.13727882921683,35782567.30536441
382,GAOFEN 4,-0.0042152987992812975,105.66729643534957,35788708.09541062
383,BELINTERSAT-1,-0.005515755490963192,51.51808344289013,35789374.62479501
384,IRNSS-1E,-13.169455841513832,108.79046398073235,35718832.80365102
385,EUTELSAT 9B,0.06907582711990155,8.957405728367245,35777554.3992661
386,SES-9,-0.019806530566825315,108.27012077236701,35794458.02479194
387,EUTELSAT 65 WEST A,0.06810625510256245,-65.23006758463353,35779404.33224368
388,IRNSS-1F,1.1167766906799246,32.56913110932537,35854579.86993881
389,BEIDOU IGSO-6,-35.795971886941004,77.89880693221819,35643306.84931982
390,IRNSS-1G,1.504758620507779,129.49224042135305,35803745.81700891
391,JCSAT-2B,-0.04923558670582099,153.982248590382,35793848.17095176
392,THAICOM 8,-0.010629898764878071,78.56488418025224,35799789.38790122
393,INTELSAT 31 (IS-31),0.0008078947028114058,-95.05069007227988,35790186.43453482
394,BEIDOU-2 G7,-1.3499896103946751,110.43117341229376,35818109.29573724
395,ABS-2A (MONGOLSAT-1),-6.723649445700165e-05,74.67981393922746,35792050.07985618
396,EUTELSAT 117 WEST B,-0.0005809989278983594,-117.04921636563412,35785205.56695809
397,BRISAT,-0.039783538960072716,150.4933711333639,35794262.017690435
398,ECHOSTAR 18,0.03355485000789682,-61.39713426698783,35780928.85682431
399,MUOS-5,4.520671456985728,-107.1392543791985,35802123.48633549
400,TIANTONG-1 1,-2.136010425260391,101.34278668964703,35798633.16620898
401,JCSAT-16,-0.08363169470990474,136.15381067442937,35747083.774417095
402,USA 271,-0.5138092991027533,118.29328114269194,35840119.66011848
403,INTELSAT 36 (IS-36),-0.01243805849573517,68.4618418263503,35791727.52800776
404,INTELSAT 33E (IS-33E),-0.01544242759619089,60.00616811564288,35787423.35052921
405,INSAT-3DR,0.038076161449121154,73.97974736234636,35743957.9667959
406,GSAT-18,0.027913733413699664,73.98613321444184,35795698.3125372
407,SKY MUSTER 2 (NBN1B),0.027157718431108025,144.76573962647169,35792112.1934846
408,HIMAWARI-9,-0.042752898645994485,140.7148728274142,35788077.084431976
409,SHIJIAN-17 (SJ-17),-0.6436304459054171,117.53066227492688,35799755.17038951
410,GOES 16,0.03064459007449829,-75.26360743715654,35783910.12334109
411,TIANLIAN 1-04,0.15794198365278694,176.59273981413384,35817181.99996177
412,WGS F8 (USA 272),-0.04506577284759126,149.79039072424513,35787393.88887923
413,FENGYUN 4A,-0.05362420880092893,104.48059394705407,35796771.37697871
414,ECHOSTAR 19,0.000687346232729047,-97.11982293382025,35783184.43297681
415,JCSAT-15,-0.026670721650171092,110.0568638483345,35791698.799616
416,STAR ONE D1,0.02722233437186432,-84.00789954705289,35777468.46003375
417,TJS-2,-0.22012966225841088,66.52545601560658,35779972.740749866
418,SBIRS GEO-4 (USA 273),2.805558918890145,-159.42591346467245,35788685.16057797
419,HISPASAT 36W-1,-0.0024023526514837107,-35.9758461938507,35781971.47624823
420,TELKOM 3S,-0.030100443534972245,118.00161488274917,35795811.98658992
421,INTELSAT 32E (IS-32E),0.051002910867589527,-43.193317518826476,35789991.612278275
422,ECHOSTAR 23,0.03246880181648672,-67.9635057357632,35780154.6659545
423,WGS F9 (USA 275),0.06610509284747566,-11.986324974015977,35784878.47395177
424,SES-10,0.03887777861541056,-66.88924077951035,35774925.36569603
425,CHINASAT 16 (SJ-13),-0.037455014570345696,110.6030889566829,35780326.90169435
426,KOREASAT 7,-0.025242748346391897,115.90939676507949,35789130.6893851
427,SGDC,0.029718891217718958,-74.8566422549708,35777763.35024612
428,GSAT-9,-0.013283815962489167,97.29397393909959,35795519.98569355
429,INMARSAT 5-F4,0.012661413665001188,56.50337288422254,35784380.53343661
430,SES-15,0.008485837519748443,-129.16471919365148,35786639.120882496
431,QZS-2 (MICHIBIKI-2),36.426718899068696,137.37398481195086,38551065.2543941
432,VIASAT-2,-0.002445651276212956,-69.91612577198032,35787085.058606245
433,EUTELSAT 172B,-0.010472972558586282,172.00501944892486,35785852.07799587
434,GSAT-19,-0.00921211520801577,47.93412257680798,35807522.877317704
435,ECHOSTAR 21,-4.185829187576445,10.247864699546872,35782908.27666356
436,CHINASAT 9A (ZX 9A),-0.42875503561407624,163.64367087013807,35915422.760418996
437,BULGARIASAT-1,0.05307226895808826,1.9119329285653708,35780727.89587625
438,HELLAS-SAT 3,-0.011295607184185047,39.005135880341776,35796726.525801994
439,GSAT-17,-0.006471592475937062,93.51414215842783,35777829.93381007
440,INTELSAT 35E (IS-35E),0.007702007729285924,-34.4826069340528,35780758.79698454
441,COSMOS 2520,0.05913591776566737,45.120448191610286,35784912.64534061
442,TDRS 13,-1.9016663017073332,-11.383054562360229,35782329.301253974
443,QZS-3 (MICHIBIKI-3),0.029349700389041406,127.06372365412042,35789176.19019261
444,AMAZONAS 5,0.017025245327416564,-61.01872596960944,35780171.071644366
445,ASIASAT 9,-0.04175593675971262,122.05462326919246,35797805.07333502
446,INTELSAT 37E (IS-37E),-0.026457734232063112,-18.012589670928758,35774709.10106691
447,BSAT-4A,-0.07079845266584829,109.82911647468919,35795755.11624227
448,QZS-4 (MICHIBIKI-4),-22.737830568664133,151.71164111913984,33816426.70183843
449,SES-11 (ECHOSTAR 105),0.0004518733039067243,-104.96690640128918,35778643.17472373
450,KOREASAT 5A,-0.02818744820768368,113.14290340029538,35790991.045103654
451,ALCOMSAT 1,-0.03961152780977069,-24.807940593808624,35778271.87822702
452,SBIRS GEO-3 (USA 282),0.4899106722223491,138.9570671916918,35796103.09093469
453,AL YAH 3,0.0022099232702716873,-20.107389770436605,35779333.55158875
454,SES-14,0.04455599744070722,-47.508016129290326,35782627.9498677
455,GOES 17,0.02475424965568237,-137.19814633549214,35786886.753793396
456,HISPASAT 30W-6,0.06335733865279534,-29.948293695052886,35773560.47477956
457,SUPERBIRD 8,-0.0397398267573519,161.98038427604433,35788593.13159097
458,HYLAS 4,0.039082562068318664,-33.50566962979257,35767959.44641566
459,IRNSS-1I,19.14067023016369,58.80666133830548,35729178.496262826
460,USA 283,-0.04476397034606209,134.076235336219,35787769.226664245
461,COSMOS 2526,-0.03252785718514439,128.0578885853012,35788448.352236144
462,APSTAR 6C,-0.008463637473806025,133.956210206868,35794891.31963645
463,BANGABANDHUSAT-1,-0.030856326830352217,119.06980847996007,35795247.02779087
464,SES-12,-0.02715142702794181,94.97981136047353,35782908.55153583
465,FENGYUN 2H,0.14929906130144174,79.34439017589501,35795595.28278825
466,BEIDOU IGSO-7,46.40132936825641,125.88598678156967,35841408.567138836
467,TELSTAR 19V,0.011680555776803405,-63.04730752481545,35774808.551051
468,TELKOM 4 (MERAH PUTIH),-0.022438453839910513,107.98646003054446,35790487.38595543
469,TELSTAR 18V (APSTAR 5C),-0.04440439340802692,137.97073927002768,35795035.07467531
470,AZERSPACE 2 (IS-38),0.023670511537474813,45.1538839504434,35785571.7858725
471,HORIZONS 3E,0.010365471431012512,168.97186398457316,35786079.63855979
472,AEHF-4 (USA 288),3.0226473849969757,-150.09751312516724,35783269.37950264
473,BEIDOU-3 G1,0.9356617465631457,139.94798090491489,35790015.51525166
474,GSAT-29,0.043263925504532744,55.07795208164406,35789444.28878482
475,ES'HAIL 2,0.03751723980596884,25.78695487709858,35779448.50560562
476,GEO-KOMPSAT-2A,-0.01655556879275004,128.28087402685193,35785077.92391445
477,GSAT-11,-2.0321718224262505e-05,74.06369484896452,35812339.06275224
478,GSAT-7A,-0.020880896161614614,62.78171288924188,35791251.12685896
479,COSMOS 2533,0.024676841627006812,69.97037280449354,35786427.000114195
480,TJS-3,-0.007474648965569329,87.75356675329945,35814486.174243204
481,TJS-3 AKM,-0.07843302135845993,59.04709025072357,35776338.81561144
482,CHINASAT 2D (ZX 2D),-0.00376386373103411,129.94929774375655,35788104.09849501
483,HELLAS-SAT 4 & SGS-1,0.08511667282073941,39.10441170502839,35780008.42155674
484,GSAT-31,-0.003703791805508239,47.87322937452514,35780245.26718867
485,NUSANTARA SATU,-0.04521620484880908,146.00119232681345,35793966.81660823
486,CHINASAT 6C (ZX 6C),0.006158885506357475,130.01746281558877,35778175.13955216
487,WGS 10 (USA 291),0.012302034337532417,60.3132618425782,35784340.98925323
488,TIANLIAN 2-01,-0.2978790573314038,80.36916519546821,35861023.850594506
489,ARABSAT-6A,-0.028549978705365672,30.43498016936768,35765041.37632211
490,BEIDOU-3 IGSO-1,-47.76762368676278,98.73383594136905,35754176.858052135
491,BEIDOU-2 G8,-0.1958877603627372,144.38262085781844,35810950.05593431
492,YAMAL 601,0.03513920577903863,49.09830076531766,35786320.49523964
493,AT&T T-16,0.001336335532936438,-100.75789225426861,35787096.5107106
494,EUTELSAT 7C,0.0002504948753448118,7.0701788225984945,35782198.83822039
495,BEIDOU-3 IGSO-2,46.30336196126734,122.23506706387755,35772542.38293429
496,COSMOS 2539,0.07400397234369568,12.043404617557577,35783331.080261685
497,EDRS-C,-0.0537112500835933,31.175274580745658,35787709.185558274
498,INTELSAT 39 (IS-39),-0.003711441758017897,61.93087381413171,35786732.79146142
499,AMOS-17,0.0021305478951416804,17.009525827194683,35781440.31935363
500,AEHF-5 (USA 292),-4.64195383122504,54.623331932757786,35793976.08065473
501,EUTELSAT 5 WEST B,-0.0027420450238900686,-4.958372887365084,35770895.98922872
502,MEV-1,-0.00516265037147892,-27.520995881840776,35783069.996467605
503,TJS-4,-0.008661524457228,83.48017076632402,35788692.8115416
504,BEIDOU-3 IGSO-3,-6.92217682748146,109.82667187899419,35868415.442891054
505,TIBA-1,-0.01928501531815261,35.49819855164755,35783728.71446731
506,INMARSAT GX5,0.009471153511303527,11.043544717661243,35777495.647002995
507,JCSAT-18 (KACIFIC 1),-0.02925228446592688,149.96921430614196,35790795.105225176
508,ELEKTRO-L 3,0.01632028982411217,76.11100698733328,35782742.15312696
509,SHIJIAN-20 (SJ-20),-0.005554327940175618,87.81130243771317,35813782.21548943
510,TJS-5,0.06286972538775233,107.53274571642277,35799696.10397311
511,GSAT-30,0.007319635299990947,82.99334669596233,35807734.81928495
512,EUTELSAT KONNECT,0.07699160298766115,7.203837272202344,35773938.714666136
513,JCSAT-17,-2.534149882299343,136.09460608472537,35804630.73900547
514,GEO-KOMPSAT-2B,-0.02517678760392704,128.25923146852136,35792880.698852785
515,BEIDOU-3 G2,-2.2658898970129644,80.06120348841178,35801908.432654
516,AEHF-6 (USA 298),4.856879934742251,166.88465005265283,35916963.24724689
517,BEIDOU-3 G3,-0.11870062065296329,110.57148808012236,35758523.980885185
518,APSTAR 6D,-0.03821155105815419,133.89526703852903,35797996.57135431
519,KOREASAT 116,-0.0297251994266156,116.21311141432089,35788515.71844215
520,EXPRESS 103,-0.003456021286212968,96.4757719820387,35785004.60791801
521,EXPRESS 80,-0.0007184426758728792,79.95216715352116,35784074.51786078
522,BSAT-4B,0.0038981223481051736,109.81739778696821,35801591.29992955
523,MEV-2,0.012183548720372459,-0.9449824275869241,35782432.07943414
524,GALAXY 30 (G-30),-0.01996984343445924,-124.981495449769,35784999.594165556
525,GAOFEN 13,0.5363516319160155,117.71820866260616,35797754.11829362
526,TIANTONG-1 2,1.0250202996789333,124.8218292750591,35804945.70159269
527,LUCAS (JDRS-1),0.0020895109539530487,90.77831780338657,35795853.19104893
528,SXM-7,-0.005680440968335255,-115.37414977338571,35785128.84128016
529,CMS-01,0.020312992205399224,83.06450160398458,35768685.91903835
530,TURKSAT 5A,0.034177869576727346,30.87616047697129,35786304.748548634
531,TIANTONG-1 3,-3.4377419428101312,81.65559281467439,35796552.781869486
532,TJS-6,0.5674067241237084,178.49694468773788,35791062.482806645
533,SBIRS GEO-5 (USA 315),7.740636067287318,-116.80968474331637,35701485.77647813
534,FENGYUN 4B,-0.007833548770062933,123.72335027285364,35786010.03775148
535,SXM-8,-0.045190625067145704,-120.4710987986666,35782486.10344882
536,TIANLIAN 1-05,-2.9388080491379283,10.916075160497313,35781003.722843416
