,Name,Latitude,Longitude,Elevation
0,CALSPHERE 1,85.8140819841598,-41.41781449550017,1019.0830498140438
1,CALSPHERE 2,40.084760146464035,-36.49539695194341,1057.5756980897104
2,LCS 1,25.437404870194396,57.422248439211366,2795.062147035103
3,TEMPSAT 1,51.10232774148487,-33.01541803465077,1129.406364767283
4,CALSPHERE 4A,53.055287253012715,55.60887123405737,1086.6425068151495
5,OPS 5712 (P/L 160),14.107911456611985,-112.21515639029917,726.5010786292206
6,LES-5,-0.6702106114075089,26.51412152059117,33608.42606229054
7,SURCAL 159,-35.904141294955515,-8.535880286551054,907.06315652961
8,OPS 5712 (P/L 153),-6.060312690309659,76.39115742165774,914.6297299400128
9,SURCAL 150B,16.754164034120365,60.81391328346886,685.8748280859168
10,RIGIDSPHERE 2 (LCS 4),52.393224998836224,39.72376971114527,758.849833024224
11,OSCAR 7 (AO-7),-78.16738726466274,-159.94967289411238,1468.482820727615
12,STARLETTE,-49.09351391952563,111.04408861148417,860.1053989937207
13,LAGEOS 1,-9.868415409188753,31.62984542751506,5933.538900243709
14,PHASE 3B (AO-10),8.26703519874198,-124.28523992900764,33292.85052717974
15,UOSAT 2 (UO-11),47.38514810062154,129.18847573995737,628.1260414558122
16,AJISAI (EGS),3.3734710663303877,148.63140062038954,1480.3662435954125
17,TDRS 3,7.33328308618705,-49.329874011147055,35728.6574153104
18,COSMOS 1989 (ETALON 1),19.361259920738732,68.6520788784131,19184.301921914615
19,COSMOS 2024 (ETALON 2),-50.75487415792545,150.5147487170899,19096.228470079972
20,FLTSATCOM 8 (USA 46),7.589895917010653,72.64193073862118,35761.57195088365
21,LUSAT (LO-19),-78.45708696087551,-132.73024562690262,815.1345897545523
22,HST,7.949185145224711,-147.8559156147138,533.0937428909365
23,SKYNET 4C,13.37807162112314,34.22054474811648,35778.347078593324
24,TDRS 5,-14.015944467327417,-168.20047990458588,35825.55716012477
25,GEOTAIL,-20.593950485167053,-59.24397562002598,150255.36829504452
26,LAGEOS 2,52.597113535019346,-26.719686093283936,5653.309995913673
27,TDRS 6,4.310441710993682,-46.56934105044461,35788.90166100742
28,SCD 1,19.72882490685611,-2.9382634095222384,710.3632967537295
29,UFO 2 (USA 95),11.40310347684732,28.694466770864267,35782.58196315905
30,STELLA,-15.495868681519925,-35.053208874387835,811.3220476977864
31,EYESAT A (AO-27),-11.064501392988374,160.37757831736835,796.226568578036
32,ITAMSAT (IO-26),-17.097341636896363,-24.216132795064517,793.1268679115076
33,USA 99 (MILSTAR-1 1),-13.090476384984866,-89.18926233408729,35800.5619502684
34,ASTRA 1D,-6.000187033678548,-72.61665967577923,35798.01079390008
35,USA 107 (DSP 17),-7.3397731295613085,-95.68766046002058,35795.15327222289
36,RADIO ROSTO (RS-15),-28.400259706492676,61.95292964379323,2089.110788422914
37,UFO 4 (USA 108),-7.280881911852484,171.99958901061612,35807.253498646285
38,AMSC 1,-10.232884865576969,-107.03082624774767,35795.838536910276
39,TDRS 7,5.162489805203701,85.59383191697562,35824.92811965763
40,USA 113,5.70268229604184,104.25824621639202,35783.08027130009
41,USA 115 (MILSTAR-1 2),-11.844554372771226,-119.32048727562872,35800.61688122835
42,POLAR,59.70929638817212,-169.50504074646446,41958.87216184123
43,INMARSAT 3-F1,-6.701804821850225,-90.19777196918382,35895.41960251134
44,JAS-2 (FO-29),-52.33657805030719,10.582719019112632,1321.7534608216456
45,INMARSAT 3-F2,2.424359824233586,150.35256771984578,35880.03556836498
46,AMC-1 (GE-1),-3.622162088702822,-130.98991826958058,35798.274729831755
47,INMARSAT 3-F3,4.229804609685208,30.094489776625732,35836.23017757219
48,INTELSAT 26 (IS-26),9.485978242345013,66.30046884011097,35770.53625848011
49,GALAXY 25 (G-25),1.0284116455005858,32.85423284744491,35766.95498455218
50,NAVSTAR 43 (USA 132),40.823206934293275,130.05404126404719,20053.44099946316
51,INTELSAT 5 (IS-5),-5.329146476375203,-137.19393528670068,35799.891279355375
52,FORTE,26.34358292088983,4.386345244587665,821.7114769690775
53,AMC-3 (GE-3),-3.734414481752933,-72.00041912414459,35795.73538522263
54,NSS-5,6.094564917739057,50.32413892112166,35769.75569321001
55,USA 134,-10.147055790458065,-112.17551088271689,35788.50393879232
56,NAVSTAR 44 (USA 135),54.101188389988785,-91.01211653729708,21364.105517554533
57,ASTRA 1G,2.1796163716441477,19.304002230025137,35772.31460142882
58,ORBCOMM FM08,24.499773294232604,-134.92196207519262,761.200625070602
59,ORBCOMM FM10,42.124509958823744,-44.36792479856873,769.1469269276358
60,ORBCOMM FM11,1.135385879440425,-159.76294043083982,760.2862946442083
61,ORBCOMM FM12,-1.0509556008194105,19.84097025469356,761.7080096415816
62,ORBCOMM FM09,-0.323917871656727,19.655868812164023,760.8445237599063
63,ORBCOMM FM05,-43.18745957718616,130.67461344599434,772.1282619164846
64,ORBCOMM FM06,45.11510030350532,-67.32416402449863,767.2734402256807
65,ORBCOMM FM07,-44.7038039648421,99.17449828059695,771.5617873519772
66,INMARSAT 3-F5,-4.216180719366761,-53.89091615680991,35793.70018077872
67,ORBCOMM FM04,7.666209455739232,46.82388615435337,824.5463994334169
68,CELESTIS-02 & TAURUS R/B,0.08311052384167605,-90.11254275193505,802.6635717106495
69,UFO 8 (USA 138),-5.192932640927313,171.3412552591845,35793.52585665936
70,NOAA 15,79.50563907934195,43.057261336261625,812.7298040257383
71,TECHSAT 1B (GO-32),-48.453733618297065,-104.65250559867704,832.0942104658245
72,ORBCOMM FM18,-16.07872974832287,133.84844846837478,786.748397164823
73,ORBCOMM FM19,-12.248057471823605,-74.62847124670883,782.8889375928555
74,ORBCOMM FM20,-44.70671305945438,-161.90909079348373,795.6703749429957
75,ORBCOMM FM15,7.419813428745878,-52.61076520761992,779.5488448594806
76,ORBCOMM FM14,-2.72273679889424,-63.064328526883315,781.1347555692831
77,ORBCOMM FM13,40.92883768721816,1.0870778929617213,781.6779878973535
78,ASTRA 2A,0.6153494017896257,27.93674981270906,35777.937350831795
79,ORBCOMM FM21,-15.675146337208806,-138.6301458169088,785.8434594025327
80,ORBCOMM FM23,-41.86935199312507,-35.933900725472014,794.2836215371203
81,ORBCOMM FM27,-24.855914058886288,-1.4780047013563569,787.5059561745891
82,SCD 2,0.269170324979893,-20.84476236542693,749.0363797111185
83,ISS (ZARYA),-23.66130129670751,19.860091077282863,426.8585472118537
84,SWAS,-45.30920291096636,-26.372005058839655,604.1112377714911
85,GLOBALSTAR M023,-49.2460149531404,-97.66583149115394,1425.3739986701707
86,JCSAT-4A,3.6140617309632255,136.12818054539935,35760.666912648565
87,SKYNET 4E,9.019204398569828,-1.7396137360526565,35780.89600686983
88,GLOBALSTAR M037,-39.05450591687787,58.76630301099253,1424.5125771643052
89,ASIASAT 3S,2.6287982450140652,148.0514803047628,35793.74608689515
90,LANDSAT 7,12.984157681250053,16.975928331100036,704.5144325482825
91,NIMIQ 1,-2.0550773874561505,-86.5862834568136,35805.20158462819
92,DLR-TUBSAT,-24.580448232959927,-108.85881795440626,740.5794448281105
93,CXO,35.3609434519365,-149.95996896915827,142345.74659588622
94,ABS-7,0.5783443467554805,33.34235529752749,35772.597993920375
95,ABS-6,-0.03953699589114832,159.04356052760218,35793.043085923775
96,NAVSTAR 46 (USA 145),-17.59352000742761,-76.2309225767725,20520.61929577973
97,AMC-4 (GE-4),-0.30878616544528636,-134.89425493494616,35798.17055395669
98,UFO 10 (USA 146),2.4299077241674536,-23.122901995987803,35780.35219804987
99,ORBCOMM FM30,-36.30209637580901,155.050408251986,795.3853480692918
100,ORBCOMM FM31,16.793816251537958,-145.99659892043212,784.3630936511976
101,ORBCOMM FM32,30.332513849685913,-12.313408261810247,782.8506796965532
102,ORBCOMM FM33,-10.61560175679099,-31.75613696230633,770.0286345489117
103,ORBCOMM FM36,8.68835863596475,-145.90097547819002,781.0282791789266
104,ORBCOMM FM35,-10.385823911555306,-163.7657999591904,785.8209772037108
105,XMM-NEWTON,36.57452442566876,-108.51935258682481,21135.451582479025
106,DMSP 5D-3 F15 (USA 147),68.28561497891278,98.21888642817163,844.3964897271361
107,TERRA,-78.45344515953654,-10.902366307286925,731.1909929580814
108,CELESTIS-03 & TAURUS R/B,78.1912807522562,-24.321973715449598,534.6485803296554
109,GALAXY 11 (G-11),-2.0937208886452843,-93.1029802768726,35784.25852462368
110,USA 148,-4.577897007995726,-179.9478357980558,35792.536924647604
111,GLOBALSTAR M063,-34.57648175880175,130.72286750227826,1758.256171706935
112,MTI,18.8416334079657,-128.53705657765826,379.6208428821284
113,ASIASTAR,4.789949772464181,105.09851994619471,35772.99799847815
114,IMAGE,-60.22380105896566,21.74569011612875,10112.728370545863
115,USA 149 (DSP 20),-10.77078252578576,-165.89663821238022,35780.44396440675
116,NAVSTAR 47 (USA 150),32.84991693932048,169.5137718461481,20064.087838018302
117,EUTELSAT 80A,-1.2241865771560818,-12.489457639058013,35798.957064817994
118,TDRS 8,8.656507737875845,89.45139728898396,35840.7422492459
119,CLUSTER II-FM7 (SAMBA),32.465087727052634,-125.89976949061429,86444.73508073212
120,CLUSTER II-FM6 (SALSA),29.219750543944926,-120.11028960684924,95667.70753746496
121,INTELSAT 9 (IS-9),-4.121819114438853,-49.83227759172971,35790.70101003661
122,CLUSTER II-FM5 (RUMBA),28.79721151551955,-124.3909186352012,92973.910512888
123,CLUSTER II-FM8 (TANGO),32.48875464468139,-125.95013942696318,86416.14098966915
124,NSS-11 (AAP-1),-0.02595357652531856,176.02016760802255,35793.445431553286
125,USA 153,2.769223479491245,134.52770919103506,35783.735288726864
126,AMC-6 (GE-6),-0.019328705016375746,-138.99446279481705,35795.65436886829
127,INTELSAT 12 (IS-12),3.2565885443981277,64.21043229893203,35765.34224763696
128,INTELSAT 1R (IS-1R),1.96182352954533,157.14723858000318,35787.28143296656
129,ANIK F1,-0.4932662257191639,-109.2794916235734,35825.3826268792
130,ASTRA 2D,6.214057563074679,57.10118385286816,35777.808294031915
131,AMC-8 (GE-8),-0.7760435223798792,-135.00315661338254,35797.33954157827
132,NAVSTAR 50 (USA 156),-15.105942400289168,12.75385049725978,21003.47857305937
133,ODIN,16.951171863025582,-22.114983894431145,548.279475012501
134,USA 157 (MILSTAR-2 2),-9.523915384679102,-124.00122945015573,35795.478496667725
135,EUTELSAT 133 WEST A,-1.7350428927118873,-132.886524011935,35801.28426632572
136,BSAT-2A,6.890540824001283,85.11120353147791,36080.71219365966
137,INTELSAT 10 (IS-10),0.3151108379555023,177.85339084676565,35788.27860668884
138,INTELSAT 901 (IS-901),0.02738039508637541,-27.519043824645745,35787.05319805931
139,ASTRA 2C,-3.544676798413725,-60.40559569190933,35856.89544113187
140,ICO F2,6.9771130332948905,33.481794423194195,10622.28855849792
141,USA 159 (DSP 21),-0.5072973362297916,-49.22907445732295,35788.72191858272
142,INTELSAT 902 (IS-902),-1.510283082047911,-50.12133593372928,35790.90073475301
143,PCSAT (NO-44),50.8185094558532,-123.55943826682149,800.1831036563713
144,PROBA-1,-9.921389447315429,-85.30657177626702,623.0566884249216
145,BIRD 2,-22.304860479401498,23.109287300268093,460.3177712185553
146,TIMED,57.410586931458745,-85.65589473568063,612.9022564145445
147,MAROC-TUBSAT,-1.9744122326250526,-83.58418354581319,990.4596033905935
148,COSMOS 2385,35.02473873450362,18.359347193943396,1428.3998836951812
149,COSMOS 2386,45.186355736946716,-153.3714796139111,1422.556639636734
150,USA 164 (MILSTAR-2 3),8.187663908430377,18.660029580738446,35774.95546092929
151,RHESSI,-37.62141263245696,24.07644709772516,476.77338825858095
152,ECHOSTAR 7,0.010762272795937047,-118.79427402112391,35789.349642370886
153,INTELSAT 904 (IS-904),-1.7214971359102196,-29.502675035847464,35786.24688465687
154,TDRS 9,-6.539596818664853,-61.89988570954048,35700.67568662731
155,ASTRA 3A,-6.484813624452979,-86.7246066898418,35792.805444615115
156,NSS-7,-1.7230889206794466,-19.952027881062758,35785.19372760111
157,AQUA,31.812358655008477,-94.3312467881801,705.5866268840432
158,DIRECTV 5 (TEMPO 1),-0.2587934625048054,-110.12773170771517,35799.573987976095
159,INTELSAT 905 (IS-905),-1.4716325642190615,-24.492170053974835,35784.25512266989
160,GALAXY 3C (G-3C),-0.009522168071910156,-95.03846584637171,35779.138032489194
161,EUTELSAT 5 WEST A,-0.613865200104754,-5.037798478365614,35776.31573249023
162,COSMOS 2390,-78.04740592640694,161.66338004963268,1508.5080208962804
163,COSMOS 2391,-70.40857315384444,-81.04488615265628,1516.3447440711827
164,METEOSAT-8 (MSG-1),6.681711348862058,41.17023671193961,35784.62751801038
165,INTELSAT 906 (IS-906),0.9092748908176477,64.14106705830802,35771.59110447486
166,HISPASAT 30W-4,-0.7545138631875121,-143.0442109425866,35805.718567331875
167,INTEGRAL,54.10943623705468,148.03803534474196,146421.90963062804
168,TDRS 10,-3.993507388841462,-171.37707161709284,35807.523175225375
169,NSS-6,0.14290881848779782,-169.49467306107314,35798.0415657902
170,LATINSAT B,35.96433718622329,6.784621384757439,674.1547544834576
171,SAUDISAT 1C (SO-50),20.698572000767292,-66.73453514022044,672.5530988633633
172,LATINSAT A,63.49177130555851,92.45327404581595,659.0166580527814
173,NIMIQ 2,5.293602599281902,89.61301678034597,35762.27184442032
174,CORIOLIS,66.24728586518656,128.66614227417583,845.9441721497102
175,SORCE,40.06403596473859,-141.75534868484382,595.7784818722691
176,NAVSTAR 51 (USA 166),45.48750148696585,-12.469225524596517,20142.007728094195
177,USA 167,-6.875224655649424,-130.43334106322843,35799.10049459944
178,NAVSTAR 52 (USA 168),-20.208475466425007,-53.186003718459105,19678.486672598476
179,USA 169 (MILSTAR-2 4),-0.7239699142160301,152.11951253879977,35786.04850839772
180,GALAXY 12 (G-12),-1.495434257091351,-129.0183807323894,35793.019375265685
181,ASIASAT 4,0.04919483558492181,38.20340132836174,35778.53472490827
182,HELLAS-SAT 2,-2.764766936646613,-95.26285240085356,35803.058871966474
183,THURAYA-2,6.3363409324290885,43.978831834181456,35764.85356980647
184,OPTUS C1,1.5490598957509918,155.7922687836534,35788.12133724946
185,MOST,3.881095292001167,-32.22857052697305,832.804617365025
186,CUTE-1 (CO-55),-1.6774439182847087,147.6603826461858,816.2690718619632
187,CUBESAT XI-IV (CO-57),-36.49312848783353,154.421629538884,826.2197366024178
188,GALAXY 23 (G-23),-0.020272245577593932,-120.97769658434683,35798.223833197044
189,SCISAT 1,13.74286369762958,-164.4509240030447,635.4939273335713
190,COSMOS 2400,45.709741363897244,103.59842690711935,1504.9721518217837
191,COSMOS 2401,81.0242168971386,-15.136474803213845,1498.4615497222765
192,USA 170,-3.3866610098590213,-42.45718919019143,35796.38115733524
193,MOZHAYETS 4 (RS-22),-57.54326928852766,-70.38340030433385,702.6875457573864
194,GALAXY 13 (HORIZONS 1),-0.030172426316457925,-127.01084210995764,35787.87498509055
195,IRS-P6 (RESOURCESAT-1),-28.379476886674283,-141.48231176126922,784.7409273414821
196,DMSP 5D-3 F16 (USA 172),-19.392816192632257,-58.56594703242888,851.9411385026593
197,CHUANGXIN 1 (CX-1),-3.1670927537869944,159.46931209691738,730.2955050502553
198,YAMAL 202,1.0193375891732503,163.57761857035456,35802.079967570426
199,UFO 11 (USA 174),6.125436061184032,74.81033502610539,35774.53505759479
200,NAVSTAR 53 (USA 175),-53.401632939604944,-61.636256246930465,20043.31849304178
201,USA 176 (DSP 22),7.953360363848588,87.77733337001453,35780.57881830898
202,ABS-4 (MOBISAT-1),1.0533199080583366,60.9762368132744,35762.4968296398
203,EUTELSAT 7A,-0.5593955116660605,-139.2112723611733,35803.33371475343
204,NAVSTAR 54 (USA 177),-55.4378761644159,-164.1172529298893,20437.27923466581
205,SHIYAN 1 (SY-1),-51.631005414040615,129.88108181010807,574.4424529366916
206,AMC-11 (GE-11),-0.001535367301053056,-130.99044930705244,35796.08826950739
207,FORMOSAT-2 (ROCSAT 2),76.57120914501513,19.10073309835787,905.1415948131615
208,INTELSAT 10-02,0.009178867590608195,-1.0131352117991081,35785.231102454236
209,APRIZESAT 2,64.983364146038,1.534930310168516,844.6581643842441
210,SAUDICOMSAT 1,74.40471968839488,-52.83227646995893,708.3941887565794
211,SAUDICOMSAT 2,-20.072259495704145,96.71504199350304,742.0389599300811
212,SAUDISAT 2,-79.45474905264885,-139.5547931504192,744.2132631083203
213,APRIZESAT 1,68.77092259379016,-63.41561775817541,720.0026057249414
214,AURA,59.89738805927467,-82.94696843259554,711.7773584853761
215,ANIK F2,-0.032806601075140024,-111.05680721216665,35785.32487591892
216,COSMOS 2407,20.95183301908703,55.50598479835979,955.3132484067311
217,SJ-6A,73.63471870443794,133.10105533985728,588.9699717859638
218,SJ-6B,52.84239169354035,149.9980365479073,588.1653931321695
219,COSMOS 2408,26.784710482427535,102.51421374218283,1478.7910516111094
220,COSMOS 2409,58.280392119300544,-58.95641446522051,1503.6168046204252
221,AMC-15,-0.020397450676684765,-105.0604259704418,35797.61710675198
222,JB-3 3 (ZY 2C),-6.443618729890388,9.084010105432307,568.358084568291
223,AMC-16,0.011985961049981108,-93.23503338735628,35949.52036982151
224,NAVSTAR 56 (USA 180),-7.224022016822365,146.8674066265516,20126.897978254718
225,SWIFT,-20.592441101434005,-131.99372118100655,549.8380908933123
226,NANOSAT-1,-17.99090005862839,-121.68596636481541,657.6805645641376
227,COSMOS 2414,79.57466468918707,-83.02979849072717,943.2182496519827
228,NSS-10 (AMC-12),-1.6248159668543118,-37.473048984872165,35787.15859823819
229,XTAR-EUR,0.016735192766301227,28.977788875808184,35777.483942565705
230,XM-3 (RHYTHM),-0.04288884725661611,-85.10870443828763,35787.56206912632
231,INMARSAT 4-F1,-0.36998712502811437,143.52244284014364,35783.195349005124
232,IRS-P5 (CARTOSAT-1),14.400325914245371,-157.18297570134754,620.323818205849
233,NOAA 18,-6.035067865841253,-154.114826446672,864.0778896118868
234,DIRECTV 8,-0.0035903465144184695,-119.07167559978168,35798.567307989855
235,GALAXY 28 (G-28),-0.029558848104624592,-89.0054819756214,35786.72743976014
236,EXPRESS-AM3,0.521960821144202,22.943430176462616,35783.62735762422
237,SJ-7,-43.990682953464464,145.15300864688692,572.7080283344291
238,THAICOM 4,0.03112183921788408,119.50896683829075,35781.08336417637
239,GALAXY 14 (G-14),0.022636837918996334,22.484923479795377,35710.453387878086
240,REIMEI (INDEX),26.898808191066617,-174.21513449267727,602.3923881544473
241,ANIK F1R,-0.018129834911809837,-107.32913834597986,35791.18717545499
242,NAVSTAR 57 (USA 183),-44.85415690809186,-132.01631221646556,19887.379088361806
243,GALAXY 15 (G-15),-0.012623444313876207,-132.9975669228818,35793.11160389679
244,SYRACUSE 3A,0.14657024471238222,46.97921526476686,35772.48266301098
245,BEIJING 1,16.342993429432816,-98.44012080486287,688.7670112827726
246,SINAH 1,8.682433524844724,86.52563334172469,687.852254194717
247,CUBESAT XI-V,-75.16326886389695,-55.716205973193375,718.2429802429897
248,INMARSAT 4-F2,3.1876055006496506,63.903238729021986,35773.65835202602
249,TELKOM 2,-0.18637073343705704,-87.06357220547096,36107.97924906981
250,SPACEWAY 2,-0.4831031804607067,-138.89680616306163,35785.052209909925
251,COSMOS 2416,77.83456444899578,-31.127806950835982,1455.4678228543746
252,METEOSAT-9 (MSG-2),0.8786587552903475,3.2699542567737327,35783.03086382831
253,EUTELSAT 174A,-0.026377675420304364,174.0623949799767,35796.405930187095
254,ECHOSTAR 10,-0.006054169614388677,-110.20892399197994,35791.75768812929
255,SPAINSAT,0.016468762748037397,-30.02296337395359,35795.500717036644
256,EUTELSAT HOTBIRD 13E,-0.037172824696282185,12.913082693272688,35775.32113455382
257,JCSAT-5A,0.01925044638954561,132.0795610332447,35783.489709462054
258,FORMOSAT-3 FM6,32.57126945547898,84.9012994184417,789.0377705165937
259,FORMOSAT-3 FM1,-3.0840656407256275,-173.7366937584714,772.7970468185825
260,FORMOSAT-3 FM5,65.69930227749553,135.61648367054968,791.8324008909527
261,FORMOSAT-3 FM3,50.086136386418545,-97.40947508622844,739.6715119522106
262,FORMOSAT-3 FM4,22.445991982331208,74.838624890888,834.4719160722325
263,FORMOSAT-3 FM2,-43.40619357984756,-39.820724163464384,795.6465733138498
264,ASTRA 1KR,0.0024753849932994346,19.14704849112188,35784.78490310949
265,EROS B,-79.9242122620466,-53.632673868660106,520.4389551884932
266,CLOUDSAT,51.46037130987068,-76.52602376671646,688.9112015244885
267,CALIPSO,-45.19203429349604,101.14418875603712,702.8418251529511
268,EWS-G1 (GOES 13),-0.02372461303720173,61.224711372084684,35772.377487736856
269,EUTELSAT 113 WEST A,-0.022480997613619467,-112.9995173314432,35798.947414779956
270,RESURS-DK 1,-14.701738865886732,141.92935239901882,566.2836676432313
271,GALAXY 16 (G-16),-0.040071495832057845,-99.01115709309578,35796.01497390153
272,GENESIS 1,49.64552969271068,108.7129348902024,549.470293648869
273,ARIRANG-2 (KOMPSAT-2),-47.255764342370256,25.982856223566436,692.8216648907875
274,EUTELSAT HOTBIRD 13B,0.0648017784334466,12.946750858214216,35777.69834138236
275,JCSAT-3A,0.030343890597359594,128.0219875664568,35782.52863415144
276,SYRACUSE 3B,-0.01190231466181796,-5.251275439693602,35775.19973360231
277,KOREASAT 5 (MUGUNGWHA 5),0.03947739823038476,113.05813354145133,35778.274050709064
278,HINODE (SOLAR-B),16.507606841488,151.5025796695951,689.7766206920314
279,NAVSTAR 58 (USA 190),-26.886262112211302,-11.497260642116055,20440.224445184213
280,DIRECTV 9S,-0.021096553656281082,-101.21317416370029,35797.54932711779
281,OPTUS D1,-0.003021126611976234,160.03626319937624,35788.343192768225
282,METOP-A,-43.91343016875667,-174.48115494884345,838.2048923946755
283,SJ-6C,1.6858311810483422,157.61002093841518,585.4657778493832
284,SJ-6D,-57.71962132713021,170.54818297740798,610.4491470798877
285,XM-4 (BLUES),0.008767927435048303,-115.22747868927242,35785.828543304815
286,DMSP 5D-3 F17 (USA 191),36.52468641292914,-17.789927957601993,845.8034120117107
287,BADR-4,0.044497312996922965,25.97118437682928,35782.03915715849
288,NAVSTAR 59 (USA 192),-52.716408121718075,93.46366125351116,20414.82154425392
289,WILDBLUE-1,-0.01456798107717165,-111.18460913522104,35792.6155024455
290,AMC-18,0.018987148126823217,-83.0241277190887,35794.427836514624
291,MEASAT-3,0.1338044639718822,78.70539590987423,35838.020723440604
292,COSMOS 2425 [GLONASS-M],62.40399755682687,-116.66599728694887,19147.35268351289
293,COROT,-23.28461924880117,127.63932974463138,876.3203954335713
294,LAPAN-TUBSAT,-8.599012262867044,101.03027115694674,633.1873294865303
295,CARTOSAT-2 (IRS-P7),40.5717184664388,-142.3732610573575,426.31664227510817
296,THEMIS A,-14.366529905415561,-122.24362534097183,69426.32162948998
297,OE (NEXTSAT),30.33510143945493,-63.49282038091048,425.90867614997495
298,FALCONSAT-3,-33.192634284834284,-23.132227550880025,449.5783596000722
299,CFESAT,-35.494392331271825,43.48917663630472,451.7989390240326
300,INSAT-4B,1.3370823527033073,85.52309652180683,35777.52085185695
301,SKYNET 5A,1.545048720767417,95.22312201582737,35773.39718783812
302,THEMIS D,-9.422768778902395,-118.75966349200041,67376.2500916646
303,THEMIS E,-11.087117702659627,-118.98911410812337,71155.80391918716
304,ANIK F3,-0.029428379119231254,-118.71894720444878,35793.839091484806
305,HAIYANG-1B,3.635508814789344,172.73080667642853,790.5611952272815
306,SAUDISAT 3,22.54255164945224,-86.17935953532626,656.3513420202669
307,SAUDICOMSAT 7,-8.858862933416905,85.86061402616627,651.6300108228638
308,SAUDICOMSAT 6,-21.22030044179454,82.98957632367247,738.0015388054775
309,SAUDICOMSAT 5,-14.838139225498605,-95.58895191670824,709.1364318361204
310,SAUDICOMSAT 3,-12.14345397685096,90.27320586384563,674.4423691915168
311,SAUDICOMSAT 4,-53.1533171381112,-108.20221602924313,761.4125618986589
312,AGILE,-2.4402921251904406,64.12555294546334,468.57049713393224
313,AIM,66.32489045858729,-118.62718726275911,532.1616741157419
314,ASTRA 1L,0.035974467741262055,19.180841300681898,35785.5508263542
315,GALAXY 17 (G-17),-0.03898367822264964,-91.00410288708389,35798.921033350234
316,YAOGAN 2,-28.601045429084103,-74.91424869590534,652.4245005061435
317,GLOBALSTAR M065,35.33686495452681,172.3340236300531,1416.8669945655365
318,GLOBALSTAR M069,-10.411338328671242,86.85692829164054,1415.7703206128597
319,GLOBALSTAR M072,4.979656823222559,-166.04830832681733,1414.72273429129
320,GLOBALSTAR M071,-35.13786073104529,-47.418651296192756,1423.8290604747428
321,COSMO-SKYMED 1,-23.758176643465188,-33.390992595698414,631.8426550318414
322,TERRASAR-X,-56.05285491911389,-44.08203475986083,531.375345186422
323,GENESIS 2,13.612324319987458,178.52136233277713,515.9817107812372
324,COSMOS 2428,-23.96091565406526,-116.08429106710447,853.8523312075682
325,ZHONGXING-6B,0.02639231408875986,115.55566368987495,35778.99590470375
326,DIRECTV 10,0.015685286506371163,-102.78400871760896,35787.15208779935
327,SPACEWAY 3,0.01588689197227012,-94.95973364311271,35787.12601143357
328,BSAT-3A,-0.048655209077430935,109.84731130697112,35773.89732255859
329,WORLDVIEW-1 (WV-1),-28.210358454657527,-97.21189398141917,504.2049559347433
330,OPTUS D2,-0.0015935263699075309,152.04173142853742,35786.19794620695
331,INTELSAT 11 (IS-11),-0.0016092999825636132,-42.99669059599415,35788.98219855654
332,WGS F1 (USA 195),-0.004179670667102406,5.977677483897868,35785.79737044796
333,NAVSTAR 60 (USA 196),27.26765163928588,101.90623572529563,19857.701987898046
334,GLOBALSTAR M067,-0.7505527289799259,140.53322317283136,1505.5551939012582
335,GLOBALSTAR M070,-49.12058348919908,-20.060201915657093,1429.727792754515
336,GLOBALSTAR M066,39.80557382860312,45.98740631597647,1416.1587833433819
337,COSMOS 2433 [GLONASS-M],-58.83337102750399,167.9420287919683,19150.06055118844
338,COSMOS 2432 [GLONASS-M],-16.871100825662026,128.61767546824564,19150.74792694779
339,YAOGAN 3,16.02530198423392,156.66621947626945,627.9294090012012
340,STAR ONE C1,-0.21196937536168392,-65.02676839567053,35794.15563781335
341,SKYNET 5B,0.12865160701730619,25.076583457515888,35772.88484981633
342,ASTRA 4A (SIRIUS 4),0.02674084487654866,4.784299897358374,35780.56599697302
343,COSMO-SKYMED 2,23.37731567444064,146.55259437723794,625.075213885194
344,RADARSAT-2,65.00842691511384,127.69702026618104,802.0974151997129
345,NAVSTAR 61 (USA 199),14.728228725623303,80.23027612289218,20138.835812569545
346,HORIZONS 2,0.009781857223620839,84.86815250819114,35776.72860182171
347,COSMOS 2434 [GLONASS-M],37.32101744366802,-23.452648663318676,19130.129508761333
348,COSMOS 2436 [GLONASS-M],-64.23259042953005,96.5501735246382,19146.39550685886
349,THURAYA-3,1.6228651940212266,98.59459734570207,35776.570452510816
350,EXPRESS-AM33,-0.10692441880489062,-4.726832066608121,35843.41091155467
351,THOR 5,-0.006125363832017952,-0.7816387450198367,35781.56674924282
352,AMC-14,16.533190540819543,16.27952334100414,35656.216397953205
353,NAVSTAR 62 (USA 201),54.44486529430985,-118.75767096813686,20478.088804215728
354,DIRECTV 11,-0.013273427899219247,-99.18149027571788,35786.11406313089
355,ICO G1,-2.413174754389084,-92.80303256451153,35794.6862702104
356,VINASAT-1,-0.006638898306289464,131.95564840341987,35781.641751420924
357,STAR ONE C2,-0.013013826084954442,-70.02054595155964,35797.396950937284
358,TIANLIAN 1-01,5.01716121537085,80.06251345216587,35900.91197784163
359,CARTOSAT-2A,-64.00780354302198,-145.50070627075618,667.749675856582
360,CUTE-1.7+APD II (CO-65),-18.80044635403347,-65.63355710286986,600.7476012739269
361,AAUSAT-II,46.78050534146686,-39.35543520260831,578.949010534479
362,DELFI-C3 (DO-64),-54.785634349977826,-17.020228790102447,563.6283158003862
363,CANX-2,23.00952298912914,112.15301775775784,614.596649810309
364,SEEDS II (CO-66),55.68089884355868,-46.004747521619976,595.8714741695406
365,AMOS-3,-0.020035609484370755,-4.128916722787017,35780.39867363149
366,GALAXY 18 (G-18),-0.02487422565549457,-123.00065473307723,35798.48674809418
367,YUBILEINY (RS-30),-9.615576201723792,-53.338594160551324,1504.0669226768875
368,COSMOS 2437,-17.535273848499006,-52.997731639649516,1502.1678759955043
369,COSMOS 2438,60.26066144143386,-40.76853744245351,1518.5260426938012
370,COSMOS 2439,-77.62817327145238,-87.02641280875092,1509.7740549430462
371,FENGYUN 3A,63.24860765104418,94.37828877537737,845.9198757315962
372,CHINASAT 9 (ZX 9),0.02847950382366686,92.23528282190446,35770.516027924496
373,FGRST (GLAST),-25.647031487497284,13.260987649133934,544.7630407973843
374,SKYNET 5C,0.041395118379298636,-17.883933622522065,35784.61976068941
375,TURKSAT 3A,0.02924533078326235,41.976588710336465,35764.694986528375
376,INTELSAT 25 (IS-25),0.018910846047560284,-31.532952288767643,35784.894635933255
377,BADR-6,0.05315180203240122,25.938611862769775,35768.63575428711
378,ECHOSTAR 11,0.01802261712687902,-110.013612465194,35795.80903674038
379,SUPERBIRD-C2,0.020370348155107815,143.96417995494105,35783.04257059634
380,AMC-21,-0.0016514165279324896,-124.89979420421035,35796.49196655865
381,INMARSAT 4-F3,-2.0862586580271807,-97.95406837793357,35797.60374829693
382,HUANJING 1A (HJ-1A),-79.37763714233733,-131.8569997373787,665.3130080177027
383,HUANJING 1B (HJ-1B),76.23725383168883,151.59203337498252,664.4847138371862
384,GEOEYE 1,9.35357092767856,-147.3723896331631,687.4584399264958
385,NIMIQ 4,-0.029897658442841007,-82.01399052482252,35791.05536859716
386,GALAXY 19 (G-19),-0.032248214218656326,-97.0161931876019,35797.93704118451
387,THEOS,-19.918577063617512,23.471946385463635,833.0804968666594
388,SJ-6E,33.729037989127384,-55.770326422748646,592.0732750798236
389,SJ-6F,28.8516395407471,115.73236680431421,596.0762700449636
390,COSMO-SKYMED 3,-65.44458367022885,125.56689738109206,648.3248478062395
391,SHIYAN 3 (SY-3),70.76630632485316,120.68285443169076,808.1021713966944
392,CHUANGXIN 1-02 (CX-1-02),39.1736232082133,139.17884236819296,797.0329956995687
393,ASTRA 1M,0.004851267024892186,19.159328954165456,35770.31852244697
394,YAOGAN 4,7.283934708720431,84.54419503334947,638.7998514866875
395,CIEL-2,-0.0002732720232744152,-128.84587564543915,35797.637802175246
396,EUTELSAT HOTBIRD 13C,0.03480263657158799,12.93937074924216,35766.932587377036
397,EUTELSAT 48D,-0.38272357089770415,-12.500697462790445,35781.11246849966
398,FENGYUN 2E,5.217211338003459,86.59091144905501,35789.23763218817
399,GOSAT (IBUKI),68.69719013992166,92.3404131731706,679.9609682527436
400,STARS (KUKAI),74.99421787255103,-126.7133874930274,643.9653595471956
401,KKS-1 (KISEKI),0.5406708077348592,-169.05290501747416,644.4030999000772
402,NOAA 19,20.668814044002282,-14.793843393050098,862.2649795275951
403,EXPRESS-AM44,0.0026979372946884968,-10.992844048469873,35788.161950010704
404,NSS-9,-0.0302683080459234,-176.90633013035878,35790.50988318584
405,EUTELSAT 33E,0.06697193175630027,33.093051038076155,35771.039032163695
406,SPIRALE A,1.5919149830144634,-113.6101157522085,7960.495853291642
407,SPIRALE B,-1.1567467554784658,-172.91358044971625,26910.165032104815
408,TELSTAR 11N,-0.010731684656517141,-37.57840500343491,35784.588801502134
409,NAVSTAR 63 (USA 203),14.125205218267391,17.647589414479686,20272.03466464636
410,EUTELSAT 10A,0.06121996206520322,9.955085595162004,35769.96737096786
411,WGS F2 (USA 204),0.03229737975869114,57.503985457115164,35787.551848077914
412,RISAT 2,35.235494374097605,73.61229253388075,432.9712866141502
413,YAOGAN 6,8.223152437024677,130.34128199637524,466.78374052058814
414,SES-7 (PROTOSTAR 2),0.03055507403980123,108.23278329960843,35785.73103228329
415,MEASAT-3A,-0.03827138897193814,91.50453265947495,35775.41480690177
416,GOES 14,-0.31216599081528995,-104.13872028547264,35811.58600571705
417,FM-5,-0.007520581592260919,-86.14293335891374,35783.24694984785
418,TERRESTAR-1,-2.6160083053241157,-110.98482310663115,35798.02670821044
419,COSMOS 2451,-70.9595784921894,19.91905572572982,1535.3410386247936
420,COSMOS 2453,-42.318666884505326,-134.03052361154576,1521.889742026745
421,DEIMOS-1,-1.410170104824232,-178.5513092413809,657.1182772322669
422,DUBAISAT-1,74.93479521226556,153.4815768989523,676.664303573905
423,UK-DMC 2,76.00576133291855,178.22541244260546,669.2123096829456
424,APRIZESAT 4,-36.454834721811906,143.8088466363019,616.5524225189528
425,NANOSAT 1B,-6.370544512104274,8.523661465339808,584.064423416643
426,APRIZESAT 3,-38.61992434767806,-139.28433176573887,671.3670921476124
427,ASIASAT 5,-0.008306083435215763,100.52197436798339,35782.628308208965
428,NAVSTAR 64 (USA 206),52.10614935346007,139.39201231620416,20091.026157952525
429,JCSAT-RA (JCSAT-12),-0.01491212268780848,168.90898143111562,35786.884118788614
430,OPTUS D3,-0.034711546846702024,156.02803825599855,35790.183280001496
431,METEOR-M 1,-60.88015032235995,-78.96508955925822,843.5042761200978
432,NIMIQ 5,-0.021696058380787205,-72.70952028063111,35797.03023753899
433,OCEANSAT-2,-4.053793568772598,-124.12773185299156,727.0226795705096
434,SWISSCUBE,21.85494265919484,164.80679021129882,711.386966331006
435,BEESAT-1,-12.801615687180306,-14.892694633121424,706.0919680244635
436,ITUPSAT1,-2.2503458807096193,162.93929863884404,714.6896478803775
437,AMAZONAS 2,-0.04484989179506675,-61.052703994379755,35799.68465397543
438,COMSATBW-1,0.053131902445022944,63.0281953391762,35770.60797446665
439,WORLDVIEW-2 (WV-2),5.018208656415947,34.61364145169396,767.8897214017356
440,DMSP 5D-3 F18 (USA 210),-74.54445866960451,156.18457641084643,867.8850970227546
441,NSS-12,0.015562003351950918,56.98310760681218,35774.27292673921
442,THOR 6,2.31054350316373e-05,-0.8538925990135503,35781.792295644744
443,SMOS,68.71979988109098,169.286910831697,770.3919545958662
444,PROBA-2,-79.38084286496883,17.5980229376099,745.2784984662387
445,SJ-11-01,-81.94920277941958,-117.61005568151003,715.957591866841
446,COSMOS 2455,-40.37953286381716,164.9923089534605,915.9334117309123
447,INTELSAT 14 (IS-14),-0.027794354959575746,-45.00623767819915,35788.983718615746
448,EUTELSAT 36B,0.078166042759971,35.868335521201374,35768.34178300959
449,INTELSAT 15 (IS-15),0.031798408704898744,85.15466113726463,35776.989350878284
450,WGS F3 (USA 211),-0.05706647771076722,-121.90930984858042,35783.26114528166
451,YAOGAN 7,-17.064671345591673,-7.746051229833074,633.2575840338775
452,COSMOS 2456 [GLONASS-M],-45.45651474570059,28.346753357671925,19134.266376468262
453,COSMOS 2457 [GLONASS-M],59.28171758768459,111.44921786496067,19142.080283208226
454,WISE,25.49715787242615,-0.9203720934160603,476.92453114072913
455,YAOGAN 8,-79.78442827765186,169.72680901284426,1272.2447592685876
456,XIWANG-1 (HOPE-1),-77.13685436341422,169.80306663208916,1225.5618437053713
457,DIRECTV 12,0.013688103007489273,-102.71225857616486,35786.1968731513
458,BEIDOU 3,0.4536279881174538,140.5379531284986,35782.3861477955
459,RADUGA-1M 2,-0.06306457326628655,85.00147109503726,35775.2597879005
460,SDO,-18.45161052009932,-106.42322870946276,35792.46992020682
461,INTELSAT 16 (IS-16),-0.0333820633205998,-76.21042290481833,35792.980836468836
462,COSMOS 2459 [GLONASS-M],60.4229890267483,68.00163076197563,19166.833352953065
463,COSMOS 2461 [GLONASS-M],60.629159456230276,67.32973498108117,19142.079306911946
464,COSMOS 2460 [GLONASS-M],46.413566578237656,-32.4272181346967,19131.283985991984
465,GOES 15,-0.053547795190415685,-127.9629223005111,35794.90516553002
466,YAOGAN 9A,-55.43623380350609,152.26979475969162,1036.7699792274163
467,YAOGAN 9B,-31.5922222240077,-179.6751904999679,894.9371983532143
468,YAOGAN 9C,-28.7556678399145,-177.05075325626808,883.2604091193879
469,ECHOSTAR 14,-0.02780672729648298,-118.90001672487152,35797.80708490624
470,CRYOSAT 2,-79.27411629427493,-58.17960623535663,745.1243205801605
471,SES-1,0.004437544639589868,-101.01622881031905,35795.278361212106
472,COSMOS 2463,36.98359151762098,-142.54743223038358,1009.8872097952823
473,ASTRA 3B,0.03893743595237968,23.453943377166443,35772.10095979863
474,COMSATBW-2,0.0046614666215746255,13.178264245827666,35782.15799045041
475,NAVSTAR 65 (USA 213),-37.61896485258482,58.52223919870782,20447.921961879714
476,BADR-5,-0.002401014175724694,25.94559325891101,35772.556206998
477,SJ-12,-33.52465426710727,132.26907862254816,584.4430518763482
478,TANDEM-X,-56.07600852449564,-44.09280749673915,531.0799253023695
479,COMS 1,0.3251678671905044,128.15972432731112,35784.70498225473
480,ARABSAT-5A,0.063270270485833,30.434349528908545,35769.38039344693
481,ECHOSTAR 15,0.00949000021930721,-61.662127974788426,35786.0261926879
482,CARTOSAT-2B,79.79608885069048,68.90467406409881,647.4632121673847
483,AISSAT 1,-25.18341499455439,123.5547995216944,616.9361556262002
484,ALSAT 2A,-13.392127223706593,-171.5165128467019,672.5775982871618
485,TISAT 1,62.69586628747089,-43.56557823251128,593.7183272084953
486,BEIDOU 5,9.05605572311411,111.30304858577502,36135.983864204056
487,NILESAT 201,-0.04371601045030966,-7.045900301920327,35772.55560159527
488,RASCOM-QAF 1R,-0.013429367296264904,2.8609225743867075,35775.13664388821
489,YAOGAN 10,48.37108977115286,138.14923990916108,632.6370403899094
490,AEHF-1 (USA 214),-0.832779223888025,3.881889426811916,35763.489551229235
491,TIANHUI 1,-69.14521162092213,141.76162627271438,515.9856942930817
492,COSMOS 2464 [GLONASS-M],-1.524289306188576,176.38923869269587,19063.93914690399
493,CHINASAT 6A (ZX 6A),0.02653299326615677,125.07631966799707,35788.561771779736
494,COSMOS 2467,-59.37246872389404,11.012348061943541,1518.2777650789933
495,STRELA 3,-10.440237869560557,-145.97661107513483,1514.130219236843
496,COSMOS 2468,70.90342568904939,179.76849506915082,1508.8510421908625
497,QZS-1 (MICHIBIKI-1),40.921814712849184,137.19771703021377,38908.514539333184
498,YAOGAN 11,81.54091352495216,-174.69210339771882,649.5640793810875
499,ZHEDA PIXING 1B,-77.59925641676482,158.91235844534174,650.1273909142477
500,ZHEDA PIXING 1C,-19.656223819965987,120.73535970145655,618.2178828896945
501,SBSS (USA 216),-69.29327586780919,21.740104900682937,651.159355455793
502,SJ-6G,-57.997006219530455,-69.502222054918,614.926069715021
503,SJ-6H,-1.495295737868235,122.56439770811134,595.0221246982928
504,XM-5,-0.011334757017194483,-85.10700064037145,35787.55158325475
505,GLOBALSTAR M079,3.3067252349126273,-130.21769577125536,1414.3072497241274
506,GLOBALSTAR M074,40.90971664016047,94.24622326081256,1416.8361010431604
507,GLOBALSTAR M076,-44.80887248677989,1.3885467067620898,1429.2089066545811
508,GLOBALSTAR M077,-2.510390133602193,6.435966950608824,1414.4270145169921
509,GLOBALSTAR M075,-41.33569832027182,-41.86238436852047,1427.6101371008895
510,GLOBALSTAR M073,-40.7984366100883,-130.1386416633698,1427.656734024134
511,BSAT-3B,-0.02987261923778693,109.8380693585756,35786.46477196194
512,BEIDOU 6,-0.02850533528104988,160.10583768928663,35773.284451601015
513,FENGYUN 3B,59.98957781456278,-29.15359874902047,843.2855362887784
514,COSMO-SKYMED 4,82.06582689724158,-118.41945850915968,634.9248918635665
515,SKYTERRA 1,-1.5880375084383844,-101.28015975986033,35792.744689653744
516,ZHONGXING-20A,1.7751352116257697,126.44826382885606,35782.973872495684
517,HYLAS 1,0.731915063035624,158.77365934876548,35787.212655505624
518,INTELSAT 17 (IS-17),0.001687121335326594,65.9966217997224,35774.70807473037
519,BEIDOU 7,-49.38204937168595,110.80836714833086,35502.6255594987
520,EUTELSAT KA-SAT 9A,0.01761877867955281,8.943627337265937,35766.29755302982
521,HISPASAT 30W-5,-0.020922102531100783,-30.049902393101732,35789.06877959223
522,KOREASAT 6,0.02246533981301806,116.02112240602433,35782.99825590761
523,COSMOS 2471 [GLONASS-K],-12.887470492570065,125.42663598565979,19103.76115131483
524,BEIDOU 8,38.47221300279515,135.5086688096969,35717.42740393815
525,RESOURCESAT-2,-9.136829085592858,31.622746572447923,824.1127249404819
526,YOUTHSAT,-81.67630591113476,-89.65534886431115,842.2091477041145
527,X-SAT,37.01061043746347,9.960056346711944,805.8474446701541
528,INTELSAT NEW DAWN,-0.0025747433158063884,32.78110116006474,35780.68604233498
529,YAHSAT 1A,0.029916390381958022,52.48711595802252,35778.48990157322
530,MERIDIAN 4,-19.101814682308113,89.62931735543366,2070.0671979665995
531,SBIRS GEO-1 (USA 230),1.2790166896036992,66.21864141743691,35776.45966254271
532,TELSTAR 14R,0.0033734726705142923,-63.03131505403821,35783.54378417131
533,GSAT-8,0.024692213580816243,55.047538919228515,35793.70216574729
534,ST-2,0.039474082627055526,88.00930017258636,35780.708736411194
535,CHINASAT 10 (ZX 10),-0.03133973841827391,110.52975095799759,35766.903735375774
536,SJ-11-03,-76.96163772413604,-157.22880707436659,713.2761806776373
537,TIANLIAN 1-02,0.3828370023890966,171.17719882104467,35770.708138273134
538,GLOBALSTAR M083,1.9681820278028728,136.85624331430455,1414.2991464655913
539,GLOBALSTAR M088,-44.74950919829446,174.5948729500806,1429.1782104344259
540,GLOBALSTAR M091,-40.96518553322883,48.55151142338499,1427.2638397124765
541,GLOBALSTAR M085,-44.769064551901224,87.88164410383796,1428.7613262715545
542,GLOBALSTAR M081,2.342394586049354,-41.525389498900154,1414.1014895278456
543,GLOBALSTAR M089,-2.49971992615085,92.84544492045154,1414.7196075298818
544,GSAT-12,0.26895689698864517,48.002571942277655,35743.4856465221
545,SES-3,-0.009086344932797542,-103.01560481846617,35797.69117932766
546,KAZSAT-2,0.021572271438413063,86.48948198265549,35779.99109379979
547,NAVSTAR 66 (USA 232),-39.70927080678205,-66.68576143168607,20241.050496535536
548,BEIDOU 9,-10.730942564543577,99.37596568112053,35967.441934732466
549,SJ-11-02,29.692202642964606,162.16237574906506,692.5491538752666
550,ASTRA 1N,0.047035552164464894,19.188415105417242,35769.3599279415
551,BSAT-3C (JCSAT-110R),0.03142366705516876,109.96085890721487,35786.5167571879
552,PAKSAT-1R,-0.01941164825481068,38.034689947223654,35772.17820578605
553,HAIYANG-2A,-43.74400781162431,155.3061812124607,985.1500590963858
554,NIGERIASAT-2,-18.74129654721145,-8.351193186614008,698.5882667373859
555,NIGERIASAT-X,-69.38077831447214,-146.22150029329242,728.4519407578771
556,RASAT,65.87196293864919,71.20818748370779,679.6273345027467
557,APRIZESAT 5,70.89107748940705,-154.92701672896317,694.6042366898702
558,APRIZESAT 6,-71.4606268819238,129.56168689379086,680.8992706802725
559,CHINASAT 1A (ZX 1A),0.023331173524873194,129.8539972192482,35784.60697125833
560,SES-2,0.030251107634986674,-87.02074704619596,35795.05612027994
561,ARABSAT-5C,0.061492966722462426,19.92154606338211,35773.15861242033
562,EUTELSAT 7 WEST A,0.03190514602069621,-7.348994357947529,35782.716358895355
563,TACSAT 4,63.0501697193557,-110.04605814706687,9274.888210873463
564,QUETZSAT 1,-0.011261951197596464,-77.01699561168702,35795.03268225049
565,INTELSAT 18 (IS-18),-0.014199883265599438,-179.96723587154338,35789.34360316635
566,EUTELSAT 16A,0.07065852638370931,15.958240886432941,35769.79787251032
567,MEGHA-TROPIQUES,6.828527695806981,-2.593805998275684,850.8080971099384
568,JUGNU,-18.93753375914518,166.45644060513132,843.4423896063527
569,SRMSAT,15.326908053460834,80.67267361431989,848.6217123595223
570,VIASAT-1,-0.03604142633084278,-115.11093774098046,35796.94195331091
571,GSAT0101 (GALILEO-PFM),47.013929831383386,91.15313972948506,23224.77997464737
572,GSAT0102 (GALILEO-FM2),12.134345097576709,127.51019856679828,23227.760083396992
573,SUOMI NPP,43.849943382293375,-93.59943659525031,832.653569524025
574,M-CUBED & EXP-1 PRIME,5.051950215542644,86.05035509258843,505.8189997422191
575,COSMOS 2476 [GLONASS-M],-27.297115194983242,-107.0455122648611,19090.839539925742
576,COSMOS 2477 [GLONASS-M],25.959951834574074,72.19357345366281,19171.54536999794
577,COSMOS 2475 [GLONASS-M],-11.90143647390674,53.12722559392212,19130.292016797146
578,YAOGAN 12,58.57813239054693,46.14398466894294,497.8195323432474
579,CHUANGXIN 1-03 (CX-1-03),-64.2769427387354,149.33797245513736,806.8566651424983
580,SHIYAN 4 (SY-4),-19.77415410404725,-51.839722714678935,809.2375734943548
581,ASIASAT 7,0.02418404001905965,105.51946599404587,35782.764400958964
582,YAOGAN 13,81.90972556578153,-28.944710645261573,520.0118688051946
583,BEIDOU 10,-40.92093593702007,83.35169980270945,35494.44827786196
584,LUCH 5A,2.8877331932478763,167.0170983932271,35801.90151852557
585,SSOT,-65.00759172646119,17.83979415082308,648.8003179975525
586,PLEIADES 1A,33.218897104541725,39.92937397186647,701.7895988044651
587,NIGCOMSAT 1R,0.0016139892293749003,42.50263491194473,35777.87330827831
588,ZIYUAN 1-02C (ZY 1-02C),-70.74158563349339,-5.4348007471782624,803.8928158483446
589,GLOBALSTAR M084,-45.58840459129494,-91.17863374833144,1429.7692610764332
590,GLOBALSTAR M080,41.37921715649029,5.656643589106499,1416.8027380054475
591,GLOBALSTAR M082,-3.5677027747718077,-85.03453315830484,1414.700244549378
592,GLOBALSTAR M092,45.58566807927641,135.55238043744953,1418.0212887457283
593,GLOBALSTAR M090,-41.424740036373905,136.70576740871613,1427.8625995844793
594,GLOBALSTAR M086,45.044268442307086,42.6596089780528,1416.8760143615675
595,ZIYUAN 3-1 (ZY 3-1),-42.33801128859111,-140.2883000665139,520.2189962971271
596,FENGYUN 2F,2.9480664316511374,111.76721051822888,35780.39783938512
597,WGS F4 (USA 233),0.032402913336354075,88.4129559507255,35785.39619566044
598,LARES,-9.450287062466112,-158.51915951098263,1447.4032559794412
599,SES-4,0.0036104058662176915,-22.028763897029798,35784.49429711422
600,BEIDOU 11,1.5032450761558758,58.80033246252135,35781.56304428752
601,MUOS-1,-1.9947812132600358,-100.42929143804535,35646.05560762512
602,INTELSAT 22 (IS-22),-0.0075854476975239695,72.11688654023655,35775.245295920075
603,APSTAR 7,0.024437026755005458,76.49800211814312,35772.43174884636
604,YAHSAT 1B,0.02108609710102348,47.602146754512376,35779.07179027112
605,BEIDOU 12,55.32561758534273,38.443046618358764,21582.597863112238
606,BEIDOU 13,28.68258107993571,87.923062104146,21534.345985931122
607,AEHF-2 (USA 235),-2.109811559942194,-67.73448382091232,35800.44707775468
608,TIANHUI 1-02,-77.63518974313408,-57.718989721320206,517.2765685754512
609,YAOGAN 14,62.30698019271652,110.64409832484232,504.7736499316987
610,JCSAT-13,0.025748177194111488,124.02641144668743,35778.56675819358
611,VINASAT-2,-0.020837778757776794,131.86594831691448,35783.0602519903
612,GCOM-W1 (SHIZUKU),22.316454276782327,-96.70084895355781,704.5045496660997
613,ARIRANG-3 (KOMPSAT-3),81.87519000206841,-6.649360194070584,707.1571293533367
614,SDS-4,75.09329054522895,161.70359936541564,673.8162426517082
615,NIMIQ 6,-0.004606771066770844,-91.11986169001209,35793.07421086199
616,CHINASAT 2A (ZX 2A),0.023091677561780963,98.27216017825002,35787.766181201136
617,YAOGAN 15,55.45000894153756,123.51326546571643,1210.775232936369
618,INTELSAT 19 (IS-19),0.011443286107572963,166.03314022233053,35788.22819675144
619,NUSTAR,5.581018995483577,156.34626120003077,591.1398093426316
620,ECHOSTAR 17,-0.033980197577328924,-107.11149487818133,35794.22587242815
621,METEOSAT-10 (MSG-3),1.1368130241291274,9.268006494877298,35781.20105291616
622,SES-5,0.02880470012585256,4.95975104378978,35781.45116595938
623,KANOPUS-V 1,3.843973258561592,59.46269513139692,508.7531058562332
624,BKA 2,-48.6744879465569,51.288236268171204,525.0121385557248
625,EXACTVIEW-1 (ADS-1B),-69.54697192100849,-12.481342401357248,830.4597616343917
626,TET-1,17.1669217118927,-166.10926212467913,404.4093216448467
627,MKA-PN 1,70.70038862598258,165.17424207624617,830.5128767459635
628,TIANLIAN 1-03,-0.013614107533737888,20.385316518085673,35763.51156573557
629,COSMOS 2481,7.3711890899280235,-150.58550413702912,1513.5529063416557
630,GONETS-M 3,-82.44861308594699,-72.34214206973348,1514.9420826133962
631,GONETS-M 4,2.6192723882796165,28.679097246413665,1474.1067542030316
632,INTELSAT 20 (IS-20),0.025973867828185053,68.49087343247115,35783.78706229996
633,HYLAS 2,-0.00025866830767997594,31.035913638176947,35778.92899789692
634,EXPRESS-MD2,49.01911577807248,129.37620902231666,3520.6827563074107
635,INTELSAT 21 (IS-21),-0.03290372916982856,-58.0133607834952,35791.01182988001
636,SPOT 6,62.65912430561504,-169.09781874429066,707.4777153257932
637,AEROCUBE 4.5A,-8.501488843005538,-47.45871900632398,482.00082466860664
638,AEROCUBE 4.5B,47.83582219781449,66.29292202103258,660.3322051250957
639,METOP-B,45.416624983782626,-169.51642199907576,827.4128531257867
640,BEIDOU 15,-14.301111669231826,37.82392260546367,21492.074141155164
641,ASTRA 2F,-0.03933321805812719,28.161730864694803,35785.55823013781
642,GSAT-10,0.002710469629875448,83.01625140388087,35780.053677793156
643,VRSS-1,-48.3000307523537,0.1813697670432609,652.3635172011612
644,NAVSTAR 67 (USA 239),-28.357652838718504,118.52621349308814,20126.81025074789
645,GSAT0103 (GALILEO-FM3),54.91678299860748,172.8551294442901,23242.321158345552
646,GSAT0104 (GALILEO-FM4),49.53651950708663,-158.8200351478136,23233.392356508717
647,SJ-9A,12.663025430224783,-4.302828293151087,652.4155414514455
648,SJ-9B,18.859577162680342,-179.34524403989454,618.1048322089408
649,INTELSAT 23 (IS-23),0.035786830237646255,-53.041372104000416,35791.29939072712
650,BEIDOU 16,1.1847973837275354,84.02453302652246,35820.35535096478
651,LUCH 5B,-0.7960795830650705,-16.33785784779545,35777.87363731007
652,YAMAL 300K,-0.016354773655914073,-177.05580373762783,35785.371687184255
653,STAR ONE C3,-0.016568409415493576,-75.00080560321781,35792.44026607842
654,EUTELSAT 21B,0.07235833730281518,21.57845571462708,35776.11762370847
655,HUANJING 1C (HJ-1C),68.17885503846442,149.8556389943025,445.4808145195862
656,FENGNIAO 1 (FN-1),62.1267338624929,6.72541460684207,444.20358480167727
657,ECHOSTAR 16,-0.03269241444055892,-61.52973373522259,35789.92251960348
658,YAOGAN 16A,60.75821050304357,-172.61123137304682,997.2405350461826
659,YAOGAN 16B,57.839939514214684,176.99562944632098,978.2681523408302
660,YAOGAN 16C,62.33783980944053,-164.03151794832047,1014.3888942782964
661,CHINASAT 12 (ZX 12),0.02589501413658087,87.50602613192902,35774.69672789214
662,PLEIADES 1B,-33.55804120993898,-139.95465649861742,710.9760421237878
663,EUTELSAT 70B,0.027690708211132137,70.47760241032512,35768.40395710003
664,YAMAL 402,0.020216198434201034,54.89037893974009,35776.28953798304
665,GOKTURK 2,-8.845619497498031,24.76503070562512,656.4173158598976
666,SKYNET 5D,0.0662225300902068,52.77391434638457,35773.96305995749
667,MEXSAT 3,-0.0329047964357249,-114.79841832137066,35793.655433947126
668,COSMOS 2482,-3.155022408209572,172.7122118533191,1483.309006713908
669,COSMOS 2483,-28.661906078175267,-6.238051714722388,1502.0940095034325
670,COSMOS 2484,-33.83758316616053,-0.9165529921361192,1512.249311932247
671,TDRS 11,-3.2128329871096284,-174.38406353529814,35807.29499446035
672,GLOBALSTAR M097,-2.8856317018682462,-175.32473598602147,1414.662843836799
673,GLOBALSTAR M093,45.17702728657339,-49.0275910658686,1418.048808147975
674,GLOBALSTAR M094,44.84891165250474,-135.21255381198287,1418.1633554014027
675,GLOBALSTAR M096,41.47771144211546,-173.7293192538858,1417.2233806430922
676,GLOBALSTAR M078,2.15902898864577,47.62120881646031,1414.099983751975
677,GLOBALSTAR M095,41.454786089687545,-89.38990414275241,1417.2829311264836
678,AMAZONAS 3,0.029774583306806223,-61.00597628503677,35799.19629577741
679,AZERSPACE 1,0.01281922756578419,45.96227790557098,35781.2036108992
680,LANDSAT 8,46.55078016044306,38.52919331130784,708.9528919673456
681,SARAL,-65.87359334965072,125.75112425750628,811.0208734409476
682,SAPPHIRE,80.96786463246623,-133.35850528639548,785.1132259228793
683,NEOSSAT,-20.915915183026673,155.6379182889404,780.0022818531197
684,STRAND-1,-42.01264663814023,-11.370610709032709,797.7001131932715
685,SBIRS GEO-2 (USA 241),1.8799514164607851,20.698698723408054,35777.24322918761
686,EUTELSAT 117 WEST A,-0.01990017299920334,-116.78692539867214,35797.36852289561
687,ANIK G1,-0.017488015491103823,-107.30195840286859,35797.35741241095
688,SOMP,-48.25936502830091,-82.77517120766682,506.3655643908146
689,BEESAT-3,41.166296048521254,134.63129542666238,517.7017139886508
690,BEESAT-2,33.52584748673691,3.2909533474362123,526.3959453578534
691,GAOFEN 1,77.05737832605864,67.79165826016856,660.8210688466712
692,NEE-01 PEGASO,59.69358447151648,75.88907925981047,637.3871415425147
693,COSMOS 2485 [GLONASS-M],-60.99198049371929,-62.78927957743895,19100.766224112136
694,CHINASAT 11 (ZX 11),-0.02568585494122132,97.94767498583931,35785.91994742689
695,PROBA-V,-58.05866635238564,-160.2729435972745,835.3923099360007
696,VNREDSAT 1,-9.438267799631596,35.00090878452268,688.4490023617852
697,ESTCUBE 1,-51.30464644678646,-130.00473283172028,669.9214366679176
698,EUTELSAT 7B,0.0656356740046108,7.017821258123926,35777.65295612851
699,NAVSTAR 68 (USA 242),47.6787128108102,-45.99232866271379,19969.277182614776
700,WGS F5 (USA 243),-0.03049473716257242,-52.50711161307246,35788.234123389004
701,SES-6,0.035640913514140705,-40.53106307734901,35787.97462066087
702,COSMOS 2486,65.6226261830717,151.59410511013667,721.5542200224027
703,RESURS P1,-34.92618099220497,-154.31694553529445,479.0312754236125
704,O3B FM5,-0.032037941411985064,132.66213029425467,8063.680749962546
705,O3B FM4,0.03787445064247494,14.234659526233795,8058.650117051521
706,O3B FM2,-0.020512392240714175,-80.18046993660444,8070.115251173524
707,O3B PFM,-0.05058534036923704,-176.56926027615893,8067.118005891528
708,COSMOS 2487,-70.53366727828154,64.50166109062559,454.3021319697612
709,IRIS,81.93051999071484,-137.23465171278576,652.00008443418
710,IRNSS-1A,19.35969704643942,50.44623128265589,35846.06656236587
711,SJ-11-05,80.94695560486149,-172.46384383497502,697.4994591232024
712,MUOS-2,-2.339219091653393,-176.4306561055539,35702.79373899081
713,SHIYAN 7 (SY-7),81.24354721545521,73.77566452055333,673.7640845172382
714,CHUANGXIN-3 (CX-3),58.708573937056364,125.937819246628,671.5143856697681
715,SHIJIAN-15 (SJ-15),35.169547449621106,132.52135879302568,667.4728051014314
716,ALPHASAT,2.586711109376908,24.81792396478601,35779.69716366485
717,INSAT-3D,-0.03476400427742824,82.0886827022482,35779.72978873997
718,WGS F6 (USA 244),-0.02370095886702455,-135.20959349680038,35785.62918765572
719,ARIRANG-5 (KOMPSAT-5),51.80373412268122,-45.13218357696844,560.5610694631232
720,ES'HAIL 1,0.054928558024243165,25.49879412841722,35779.84151199537
721,GSAT-7,0.0540524173847378,73.9391420790982,35791.59274327581
722,AMOS-4,-0.012553404511958117,65.04186665392105,35778.65092025451
723,YAOGAN 17A,-32.72246987005807,117.41835281180684,1269.886175989824
724,YAOGAN 17B,-31.48948379183555,116.70493403888439,1271.5481474043322
725,YAOGAN 17C,-32.48665887575968,116.49052811124174,1270.2936967714536
726,GONETS-M 5,54.29623609100562,-51.007049321527354,1501.1861837503118
727,GONETS-M 6,-67.7912344517169,-79.61632419535277,1528.23309271085
728,GONETS-M 7,16.0561206654714,118.24897616994609,1485.2726211819622
729,HISAKI (SPRINT-A),5.701235580270999,-158.0771841756399,955.0389078713702
730,AEHF-3 (USA 246),0.39847240185410493,143.03955575115242,35511.02926371517
731,FENGYUN 3C,-47.11901981425588,-172.3001346189606,865.8215790323351
732,CASSIOPE,53.75608575325768,-178.11351726267637,1032.554611879505
733,POPACS 1,48.0857576848896,-44.0098104993123,480.18270006140364
734,POPACS 2,60.10911356738139,-149.99997284405654,1169.7542355560508
735,POPACS 3,-30.777437949996145,47.104283643402205,642.1024168920238
736,ASTRA 2E,0.0623567562954657,28.44382723160461,35775.23598621709
737,SHIJIAN-16 (SJ-16),-15.239668731899963,-144.0892653792781,603.3622084738307
738,FM-6,0.010475424452145754,-116.1680468001002,35785.13590903705
739,RADUGA-1M 3,0.40689162147410946,34.94166890954986,35782.582733418785
740,STPSAT-3,-25.322703332814935,-70.03925671707414,454.5798578463747
741,YAOGAN 19,30.007479232629066,3.3586871768596476,1204.7029925698628
742,APRIZESAT 7,43.43064369910797,124.60744608625102,614.1682294245988
743,ZACUBE-1 (TSHEPISOSAT),0.84930318364458,-58.040820357748174,667.55023430876
744,SKYSAT-A,65.25174184831594,52.305138248977244,591.8950555044125
745,DUBAISAT-2,-69.31732930675767,-157.38411469778868,602.423643791233
746,OPTOS,80.68255092936262,-54.04642284209836,791.9163605568652
747,STSAT-3,74.05043363668841,130.112681456318,625.3147569803887
748,WNISAT-1,53.519818671249276,-130.2004479359423,682.4480579163331
749,APRIZESAT 8,-37.75891493914285,-63.45184134505731,671.2235884524581
750,TRITON-1,45.742785298817346,-86.56087711138764,645.6149795599969
751,DELFI-N3XT,-79.7626599193571,132.71462962692326,652.6841388002535
752,GOMX-1,80.72837870831988,-62.958381232673496,766.1959747950411
753,FIRST-MOVE,-2.92219730159286,-56.978832078344986,669.5064095151424
754,CUBEBUG-2 (LO-74),16.515524874506372,104.70057929525703,623.472127990117
755,NEE-02 KRYSAOR,-53.721985747029976,-86.23851659595302,707.3173009803857
756,FUNCUBE-1 (AO-73),53.82638797051684,113.78258028876446,605.3283167809628
757,UWE-3,-41.83177705613551,-72.99748274064183,698.3296461472388
758,SWARM B,-72.02611106473641,75.5991831307305,528.9740359400055
759,SWARM A,87.16054689639324,19.15627484227411,441.23378214302835
760,SWARM C,87.04837816624739,23.4211966797431,441.22958449455723
761,SHIYAN 5 (SY-5),17.83073067978059,56.60013319024453,750.8885958208583
762,SES-8,-0.03384270204378455,95.02755908692988,35780.51896417356
763,AEROCUBE 5A,36.18758478997155,-12.004868640493745,792.7588350483006
764,AEROCUBE 5B,47.55873962747078,62.79782465680033,727.1200648625038
765,INMARSAT 5-F1,0.03904985100634367,62.58246678772107,35787.39991711444
766,TKSAT-1 (TUPAC KATARI),-0.018654965103207025,-87.20616020833204,35793.469223585555
767,COSMOS 2488,82.45610076251859,-139.1587971383166,1503.2371706576853
768,COSMOS 2489,-28.119906198908122,-51.71848713039927,1522.119598687467
769,COSMOS 2490,-37.63101206363239,117.30652356327278,1502.6784746928922
770,EXPRESS-AM5,-0.019853884559644593,140.01819326744507,35790.16427058072
771,COSMOS 2493 (SKRL-756 1),68.35130143769061,-94.10179958154393,602.3983471935476
772,COSMOS 2494 (SKRL-756 2),60.484723804692194,113.35958032901453,591.2620488135292
773,GSAT-14,0.02844211417646907,73.96023268016877,35783.741485286744
774,THAICOM 6,0.033714842750844076,78.49929128214713,35765.13581760076
775,TDRS 12,3.2405140974234374,-40.999915597487,35788.67561965737
776,ABS-2,0.012201879640472327,74.92553888786526,35776.36176920386
777,ATHENA-FIDUS,0.01705065914402569,37.79415756144743,35783.01446611142
778,TURKSAT 4A,-0.013677656475261282,41.95727814693006,35785.540475990536
779,NAVSTAR 69 (USA 248),44.91530427832569,-165.42310432962336,20304.684221089836
780,GPM-CORE,-20.208099145496007,-50.61050255685437,405.24402661620974
781,EXPRESS-AT1,0.016579928186088794,56.004021566164404,35786.224246941085
782,EXPRESS-AT2,-0.027616182253360017,139.82179564199907,35786.15126964127
783,AMAZONAS 4A,-0.13436039100270475,-73.97663289965485,35798.32544638209
784,ASTRA 5B,0.04036221946511244,31.45558931339493,35771.75511842529
785,COSMOS 2492 [GLONASS-M],-59.24419076119786,-109.50702394692824,19130.978693914636
786,SJ-11-06,50.86929185117859,19.602038354571413,694.8745798731381
787,SENTINEL-1A,70.06578723413219,-9.766339252220842,706.9695359264534
788,IRNSS-1B,-17.837513146833615,51.5087092980047,35708.05381941529
789,LUCH 5V,0.7682298026639118,94.76381842664223,35772.25231801474
790,KAZSAT-3,-0.00762785295144068,58.47948612554406,35784.79751143686
791,KAZEOSAT 1,-57.00880501615374,19.199513278695427,774.8581279191201
792,NAVSTAR 70 (USA 251),-31.6646997980843,170.38639241317503,20182.39880361662
793,COSMOS 2496,28.111532512256883,-114.8918461283502,1511.8602421047576
794,COSMOS 2497,-79.13689812731337,26.736322409391406,1518.3509005639828
795,COSMOS 2498,33.824529843051394,74.36115467048982,1485.6887734436946
796,ALOS-2,22.960778931142215,59.95669750249265,633.4911794444442
797,UNIFORM 1,71.92170432084029,-151.81784296445377,624.1537987389561
798,SOCRATES,-55.46977067247859,45.84687809512453,641.7026041833866
799,RISING 2,81.82518210286936,153.8631788404717,632.4434005645642
800,SPROUT,73.61996526651723,99.21912439775593,610.0468901792548
801,EUTELSAT 3B,0.059796578433982575,3.0342736559710475,35782.03361715929
802,COSMOS 2500 [GLONASS-M],27.783865456238836,105.5505245748482,19117.497987441235
803,KAZEOSAT 2,-20.719125047073575,-152.42920145250977,641.5127967061388
804,HODOYOSHI-4,19.305883661001292,-156.78764200657704,636.6058074043253
805,UNISAT-6,16.535411357783428,162.1732344199897,623.7316799619946
806,DEIMOS-2,74.05553034763062,-111.82776558464778,625.0625627388275
807,BUGSAT-1 (TITA),23.50631774499485,-55.4153778231114,600.081584907151
808,HODOYOSHI-3,-81.40347259448494,121.54273737963776,686.6087645934421
809,SAUDISAT 4,-49.28003251767434,-4.1091635761126195,691.8670811763022
810,APRIZESAT 9,76.43532537942812,-70.79213768012707,663.3421058839687
811,APRIZESAT 10,73.79890944071407,160.05339382103463,682.2498305984582
812,BRITE-CA1 (TORONTO),16.889717906197035,133.20185070396101,625.2096448060869
813,DUCHIFAT-1,-81.8848936063699,-177.1072480178631,625.26228483617
814,NANOSATC-BR1,-56.346392302499765,87.4826560736836,617.0334755517034
815,QB50P1,-33.80984664641035,-114.62481822911583,621.5871963152892
816,DTUSAT-2,54.12848803715988,-101.84782809301426,610.6199545284403
817,QB50P2,-44.627567445572076,74.98083918415077,616.1715822973731
818,PERSEUS-M2,24.525632300967484,-117.1962608553989,614.4423066900138
819,PERSEUS-M1,-79.68889973028728,-171.7091612064267,646.2011716517673
820,POLYITAN-1,-80.87807171780003,-168.23877980149067,633.4723927560756
821,TIGRISAT,69.96592579751461,-40.27172150608365,624.6204786220072
822,LEMUR-1,-24.717081750204738,-15.874440306109538,686.8393316787864
823,AEROCUBE 6A,39.543588427692804,175.12765474410443,616.7460439608534
824,AEROCUBE 6B,71.82559917072061,-168.34022471723284,614.2532050876374
825,SPOT 7,-65.6484417242088,8.327723826543055,723.8402733317271
826,CANX-4,-4.715057035107854,-76.93861844009444,643.9805083399442
827,CANX-5,-31.364910891589286,-72.55827663810773,648.9812899298191
828,OCO 2,5.32471327789794,-98.56928147851349,705.0349848193453
829,GONETS-M 8,34.77419423075575,-96.17806830725493,1480.0187866328133
830,GONETS-M 9,56.35103571618171,-90.0338981447387,1486.7815295106182
831,GONETS-M 10,29.444404431649374,74.34802768124588,1496.6168852589226
832,METEOR-M 2,-61.00337641668643,-177.6893633190734,849.8509936868957
833,MKA-PN 2 (RELEC),26.869358772839462,-7.962417877486669,645.6566528961707
834,DX1,8.276038178520967,168.24863009817236,626.7204808137193
835,SKYSAT-B,47.4717855783744,176.1044968268193,634.2720278543864
836,UKUBE-1,-17.413679625040768,0.9001398272531738,622.3810752992592
837,AISSAT 2,50.825404246024405,-18.040437929653255,631.3944567798067
838,TECHDEMOSAT-1 (TDS-1),-45.916139345325675,-1.2203724588358467,630.6102621816193
839,O3B FM3,0.04284385393363769,37.35150044962379,8064.096192601467
840,O3B FM7,-0.011858441289493968,133.9287467156513,8065.177461162064
841,O3B FM6,0.022324356684731282,86.85285811701907,8061.1558288654
842,O3B FM8,0.032365202288597045,-10.361859753482298,8062.983501414804
843,ORBCOMM FM109,44.956760333361245,-126.7077215118832,716.118532777813
844,ORBCOMM FM107,-8.053443607515264,114.24731500319945,709.9376669765348
845,ORBCOMM FM103,-33.44355114895397,-20.13742426540262,718.3523303045059
846,USA 254,0.06397382525966769,173.61519427549555,35830.3199425074
847,NAVSTAR 71 (USA 256),17.80288667206821,-108.06234988197183,20154.167476118066
848,ASIASAT 8 (AMOS-7),0.014142269041831778,-3.9171554699602944,35778.38202259882
849,YAOGAN 20A,30.92497211032934,9.14193258929355,1219.456434386075
850,YAOGAN 20B,31.742572666049416,9.411892826852618,1217.3996758143085
851,YAOGAN 20C,30.73356988074005,10.015011307267821,1219.301112430988
852,WORLDVIEW-3 (WV-3),-27.50102357596671,-141.80135170379793,623.953908703996
853,GAOFEN 2,31.23305780441745,-151.8703444337443,633.0902329405696
854,BRITE-PL2 (HEWELIUSZ),81.98885387282294,132.19674124279524,632.1047327770542
855,GSAT0201 (GALILEO 5),-2.285152407159145,92.41167028038237,19376.758727174092
856,GSAT0202 (GALILEO 6),-17.7890684932155,-105.74250435422634,24582.136765898267
857,LING QIAO,-34.763138038625286,-59.26714866482147,817.8026807923674
858,CHUANGXIN 1-04 (CX-1-04),-30.094091489389882,-58.36719462692227,818.1183884472983
859,ASIASAT 6,-0.019088721182500747,119.91729442416464,35785.55878295012
860,YAOGAN 21,34.5285591275953,-157.28518886650426,506.4879640239483
861,TIANTUO 2,2.5495020089229663,41.58211090469785,462.0556300200803
862,OPTUS 10,0.03935274731357222,156.05925382320228,35784.62339410565
863,MEASAT-3B,0.005950832570387965,91.5245584418492,35780.56706729277
864,LUCH (OLYMP),-0.03965622692162588,56.92179667382194,35780.896022683686
865,SJ-11-07,2.8828357321833247,-137.28040247209725,686.3626664614939
866,HIMAWARI-8,-0.023249780358834637,140.6517509860878,35783.409177275586
867,IRNSS-1C,0.5102230081441518,82.96244509166343,35694.61537573661
868,INTELSAT 30 (IS-30),-0.032729768880552096,-95.07210458632377,35786.03578069116
869,ARSAT 1,0.025633187681470212,-71.81918798470993,35790.66224573131
870,YAOGAN 22,-79.01534928067215,-30.855398363829842,1226.174006537289
871,EXPRESS-AM6,-0.0061246552711670945,53.00244887217911,35784.76603631514
872,SJ-11-08,5.582247776709373,80.48308947144915,694.7449106580148
873,NAVSTAR 72 (USA 258),-52.451159443334305,-91.08222164309053,20286.62007714544
874,MERIDIAN 7,62.908873309895924,78.56617630883837,37990.955548648984
875,ASNARO,-16.381877112745354,37.97561376100728,514.0722596933674
876,HODOYOSHI-1,-68.96498476396236,-128.47113230836837,520.4144925145191
877,QSAT-EOS,8.207219071381656,-150.69122519066065,496.53035455345156
878,YAOGAN 23,-56.47176971337558,-106.91364219012065,531.7950674984248
879,YAOGAN 24,27.078998325295455,-104.08351070545606,656.8861894453676
880,COSMOS 2501 [GLONASS-K],-38.59543948488167,154.78301307068364,19154.66889314267
881,GSAT-16,-0.031351979206428966,55.12873263589548,35761.6353969937
882,DIRECTV 14,-0.035176340702431065,-99.22311588124454,35784.47463780688
883,CBERS 4,-17.067817536230564,30.758544524270178,780.9102673726159
884,YAOGAN 25A,-52.44511290550291,-4.156266293264052,1183.481058022246
885,YAOGAN 25B,-51.54958219724721,-5.595135514708306,1185.925118224112
886,YAOGAN 25C,-51.818121669990276,-4.590227746459748,1186.1148124376577
887,YAMAL 401,0.04547878683726777,89.86828459892124,35788.06905930413
888,O3B FM10,0.008816484329964859,-57.54124789119224,8065.873349971659
889,O3B FM11,-0.008087789056673919,-81.27172776519211,8066.50140089472
890,O3B FM12,-0.03600803377036683,157.04492757796925,8065.3437790115795
891,O3B FM9,-0.04685594488883641,-178.42794996193916,8066.5768308057
892,KONDOR-E,-42.15792304554753,35.709674565303445,440.6726592098357
893,COSMOS 2502,37.404582158260546,-36.593402161597936,911.3334471194445
894,RESURS P2,-6.1853278148001785,-132.77940508234366,473.0491992991261
895,YAOGAN 26,80.45407509489443,150.28031707692548,502.2911414078241
896,ASTRA 2G,0.03364877409454933,28.191215939118788,35770.588808909946
897,FENGYUN 2G,1.1492356165476376,99.68538404982147,35789.83718802193
898,MUOS-3,2.171428706543141,-16.13139675730273,35899.60288135306
899,SMAP,77.95255543755165,104.68297777493864,694.1821175898114
900,FIREBIRD 3,-74.4159078089733,-34.38760524583392,533.0241991528403
901,FIREBIRD 4,61.646451732831096,-86.27082852753102,448.99961063419676
902,GRIFEX,11.546016167539467,-82.03842055503931,445.8833729325597
903,CP10 (EXOCUBE),-0.5372946881474895,-85.8491468172108,492.1896410129853
904,INMARSAT 5-F2,-0.03748243482241223,-54.985618941062334,35787.15829778321
905,COSMOS 2503,81.91813871545182,55.61480659585831,575.8649992325029
906,ABS-3A,0.001639279933770952,-3.0032986978126583,35776.723981493116
907,EUTELSAT 115 WEST B,0.0086649305234793,-114.91466550042668,35786.85464324636
908,MMS 1,-20.109148634200096,-105.26928898879781,172560.3351754641
909,MMS 2,-20.116191075841126,-105.26676853226212,172538.4798386219
910,MMS 3,-20.110048983439047,-105.25853381385767,172539.11416549294
911,MMS 4,-20.110926515135542,-105.25668137363034,172555.2115246025
912,EXPRESS-AM7,0.024841138922847564,40.050134924952246,35771.42371558234
913,NAVSTAR 73 (USA 260),22.751513430380736,5.708421662780464,20294.665198128045
914,KOMPSAT-3A,-18.20521776854369,-101.4439788013722,535.9249108066226
915,GSAT0203 (GALILEO 7),-53.06467246195735,-163.35652937132534,23237.589329591374
916,GSAT0204 (GALILEO 8),55.879625239552524,59.696437786726726,23230.01476448077
917,IRNSS-1D,-29.070327122257886,112.94688856736721,35788.954395014815
918,BEIDOU 17,-24.60687463853373,82.58907039805653,35643.185189525604
919,GONETS-M 11,-47.707199472643936,173.78381754551808,1506.5844807374383
920,GONETS-M 12,-11.502262128890491,-15.42462566304909,1496.8014391001889
921,GONETS-M 13,72.02358837723438,141.42567801351493,1515.129080838153
922,COSMOS 2504,-71.05689116201124,-67.7109604891032,1516.1860425196896
923,THOR 7,-0.01193710942416717,-0.6881386322707082,35781.15657676978
924,TURKMENALEM52E/MONACOSAT,0.023142375346595693,52.00352554781492,35775.96753813072
925,AEROCUBE 8A,19.523344704860737,101.56549954895715,339.35703997642423
926,AEROCUBE 8B,19.450874873560483,-111.28602013182682,281.5319810610577
927,DIRECTV 15,-0.03095566265211232,-102.84376332070663,35783.53998079977
928,SKY MEXICO-1,-0.030897621935956705,-78.77820927423689,35793.01780801636
929,SENTINEL-2A,24.816226498410508,38.20243586815024,791.6559278438202
930,COSMOS 2506,79.33130825031975,66.97487769775852,733.7714617784954
931,GAOFEN 8,-25.5825121002789,-88.4584155287833,510.39448282769183
932,DMC3-FM1,-23.13145765799288,-153.99013599663266,667.1232871732699
933,DMC3-FM2,77.0435818059892,-6.923616384404002,660.7277920144614
934,DMC3-FM3,-38.46296976493406,36.97666557784856,654.1627846494932
935,CARBONITE 1 (CBNT-1),30.822275083988746,-163.0002914748168,660.5414366801723
936,NAVSTAR 74 (USA 262),29.464932999633756,-72.05735791702482,20044.807137949156
937,METEOSAT-11 (MSG-4),-0.16635984007346516,-0.3368102451279307,35784.06733062516
938,STAR ONE C4,-0.0076113390862488734,-70.0257231283124,35789.625060102335
939,WGS F7 (USA 263),0.005502259991378839,175.0029966562584,35786.0765331702
940,BEIDOU 18,42.716577996366716,-33.38779187469323,21522.356795460535
941,BEIDOU 19,-8.977378793956193,114.1504423634493,21535.984795234675
942,INTELSAT 34 (IS-34),0.018717377019852238,-55.49202051816611,35783.835448826896
943,EUTELSAT 8 WEST B,0.06209039774093328,-8.034964066041262,35769.0349665687
944,YAOGAN 27,0.12289008013495653,-0.39514482926967115,1209.1470958136185
945,GSAT-6,-0.08497299355677573,82.56256511314234,35767.00224505141
946,INMARSAT 5-F3,0.0019739520955764206,179.58741684239342,35785.71803934064
947,MUOS-4,1.1664920666971783,75.33290669638274,35977.85693901273
948,GSAT0205 (GALILEO 9),-45.999814847940335,60.893429918635455,23240.99345417055
949,GSAT0206 (GALILEO 10),52.87372224416611,-47.17264000782612,23235.057451341803
950,TJS-1,0.044161388421308755,154.96650134481192,35794.69746138276
951,GAOFEN 9-01,-32.63754601880136,29.69098750203826,639.371301043275
952,EXPRESS-AM8,0.017427679042415642,-13.998501462438321,35785.602684807985
953,2015-049A,-44.61011104466138,150.19517998059248,530.5598354370198
954,NUDT-PHONESAT,7.327611571034759,-25.337275056440944,495.41451157757746
955,ZDPS 2A,29.879730559110584,142.25651951707442,501.04397126796914
956,ZDPS 2B,30.44819224647433,-31.689787724381212,515.6975758573674
957,XW-2A,70.57689316806032,35.204359721057884,441.71591707457344
958,KAITUO 1A,54.3330405818169,130.61965300303373,515.5433346456491
959,2015-049G,21.89659698323118,135.19633323284742,512.8601618513223
960,XW-2C,79.39369945704628,97.41499223380653,521.5460646379906
961,XW-2D,12.153058710843283,-36.90460858921643,524.0962971413061
962,LILACSAT-2,51.66908649203295,-31.199492052572605,529.3337128005801
963,XW-2F,10.843542727082907,143.20014845975902,500.41684759851773
964,XW-2B,40.96926157565748,-31.32679864169212,523.5200289801185
965,KAITUO 1B,81.8553513620657,83.77898621056879,515.133626270852
966,COSMOS 2507,-30.7989671854901,-142.26381318138016,1502.9024839123324
967,COSMOS 2508,78.53968944771533,172.1080906004614,1516.8038858784148
968,COSMOS 2509,-21.9747752142335,29.477431328649686,1490.6136730342553
969,PUJIANG 1 (PJ-1),55.97094771068238,138.9668596564545,474.7342314767941
970,TIANWANG 1A (TW-1A),23.935642173875703,160.55723417458057,431.0653110697052
971,ASTROSAT,-3.445860436502595,73.72170271679745,639.6816210672389
972,LAPAN-A2,3.628499723433503,-112.45974225634424,632.2194119216155
973,LEMUR-2-JOEL,5.24433717270273,-114.96616047378856,623.6525534385121
974,LEMUR-2-CHRIS,3.93211146097783,-39.3677488743814,633.6067404680725
975,LEMUR-2-PETER,1.6094863611204806,7.076592615034853,641.5951816032557
976,EXACTVIEW 9,-5.906394182066644,113.72506014966652,633.6109640928689
977,BEIDOU 20,-48.5278688527199,87.10501181606944,35693.84965127825
978,SKY MUSTER 1 (NBN1A),0.015248469088064641,140.2785973751968,35785.81565247844
979,ARSAT 2,0.019848259507293096,-81.01840592615052,35790.60335986077
980,MORELOS 3,-0.7191903589623827,-113.07387353928688,35800.75940962928
981,LINGQIAO VIDEO A,-78.91131519489826,-120.75703873888764,666.7684885336747
982,LINGQIAO VIDEO B,72.67879870230024,169.94458157895824,673.7021122753279
983,JILIN 1,-64.98321859255815,-145.76562058240285,662.9490037330215
984,AEROCUBE 5C,46.409709638774366,-65.92161662230214,714.3299111385775
985,AEROCUBE 7,-62.63173986238593,-162.36907125590682,527.1751132325069
986,APSTAR 9,0.02290708792587756,142.0140136162664,35787.05828721484
987,TURKSAT 4B,0.029368337116614626,49.967006268827625,35777.89227344531
988,TIANHUI 1-03,-1.9512330367138235,80.42505319173105,498.1449311322753
989,NAVSTAR 75 (USA 265),0.28819468827141387,26.161644595006223,20334.402904790863
990,CHINASAT 2C (ZX 2C),-0.023651019899272888,103.4577992042939,35784.94863929644
991,YAOGAN 28,-64.89001523380234,-67.29183563043213,521.219106953853
992,GSAT-15,-0.09152995994318923,93.52502304675377,35782.30344527973
993,BADR-7 (ARABSAT-6B),-0.011848005586140086,25.93963814320448,35793.21853365849
994,COSMOS 2510,62.63575297904895,-146.68548357518165,38027.50109568892
995,LAOSAT 1,0.013890460796042708,128.490873856248,35785.41741724062
996,TELSTAR 12V,-0.008857179315987446,-15.024193080744457,35787.20268384047
997,YAOGAN 29,-55.592389485397455,-57.83723644346441,650.5562177188725
998,CHINASAT 1C (ZX 1C),2.42456082947609,81.39409185132492,35779.21178561121
999,ELEKTRO-L 2,-1.1716578744712491,-14.574309320522561,35786.34450684203
1000,COSMOS 2513,0.04925868226049677,80.2491823130763,35775.75260155549
1001,VELOX-CI,-12.863750977861198,161.74525838147665,532.774920686942
1002,KENT RIDGE 1,12.033004865570211,-8.853768609299875,539.4974433927508
1003,ATHENOXAT 1,8.997313091746074,-6.890725629988541,510.03538845372475
1004,TELEOS 1,13.300051998165412,34.622704958922874,535.6397577122561
1005,GALASSIA,-14.978548246040418,103.35524034127523,524.4971269278259
1006,VELOX-II,11.34994513956559,-52.71373765365169,521.4264479897956
1007,DAMPE,82.67707763128783,37.93288812546774,514.4804990190484
1008,GSAT0209 (GALILEO 12),-1.4364270877428427,74.71978445221121,23212.46670570724
1009,GSAT0208 (GALILEO 11),-34.32852798817667,-75.85724525110615,23233.293252195614
1010,ORBCOMM FM114,-17.36186001704874,14.956737101149281,711.5431818443301
1011,ORBCOMM FM110,46.729483441658765,131.19939491060254,714.5105524447771
1012,ORBCOMM FM118,-27.476740689317612,-119.72793671446283,716.6349649965879
1013,ORBCOMM FM112,-32.25354034751532,-95.3904234120581,719.1682430613569
1014,ORBCOMM FM113,45.153820751895324,9.321799742690962,712.8518208112016
1015,ORBCOMM FM115,-42.683015097111095,66.42426588473823,710.5303164311357
1016,ORBCOMM FM108,-41.48412564188643,156.35046584437964,721.1064700210236
1017,ORBCOMM FM117,41.73859082651809,-25.164569992473325,714.968269942218
1018,ORBCOMM FM116,-9.887758775450736,129.66473364287404,712.6115782131834
1019,EXPRESS-AMU1,0.01377327405433246,36.06008256881349,35775.755261785365
1020,GAOFEN 4,0.010762076405109327,105.69171073814942,35779.28338109021
1021,BELINTERSAT-1,-0.0015298285984282171,51.49334184098731,35779.74087283062
1022,JASON-3,-7.394608603500269,153.9630836784866,1340.143480526849
1023,IRNSS-1E,29.123188562262733,112.4647544659384,35772.811085044785
1024,EUTELSAT 9B,0.0125343691235183,8.964736693268712,35796.305530664904
1025,NAVSTAR 76 (USA 266),-47.895771101828274,34.6526977581457,20148.18849304831
1026,COSMOS 2514 [GLONASS-M],-24.823535874633883,-73.0924825897716,19154.018175755333
1027,KMS 4,6.443819794053279,34.1350064445197,469.4155721211583
1028,SENTINEL-3A,64.6257090658815,45.3140940768827,812.8028263849467
1029,HORYU-4,-0.753658808382483,158.57707689860925,559.4970040399121
1030,SES-9,-0.03056647401590123,108.31871075476936,35784.36271228767
1031,EUTELSAT 65 WEST A,-0.031474679526782304,-65.22095512838204,35790.256128624984
1032,IRNSS-1F,-1.8881785627384622,32.78420808503535,35787.287720595654
1033,RESURS P3,-75.38081516108245,-105.80191803507468,497.3765236352626
1034,COSMOS 2515,-47.879834703164704,-99.66484435114323,573.8213009170231
1035,BEIDOU IGSO-6,51.32479382174078,109.35909362049499,35821.48285694271
1036,SENTINEL-1B,-67.82236710906676,167.37501236572643,722.2327416627336
1037,MICROSCOPE,12.407862621396188,142.6290718601636,713.5007787629708
1038,E-ST@R-II,81.57411406483136,-155.1724600837945,664.5577146200397
1039,AAUSAT 4,80.74261541216521,-137.93083706700017,641.9431834102902
1040,MVL-300,74.47807506333994,-137.62552655745964,486.08641476968455
1041,AIST-2D (RS-48),-64.86032666864755,-172.8874205020584,476.4967203196364
1042,IRNSS-1G,0.565692241277987,129.4951200744829,35786.76570011819
1043,JCSAT-2B,0.01891193535330032,154.02481974428963,35786.600147810444
1044,YAOGAN 30,15.735576768111345,7.9546139694308895,635.4686940851669
1045,GSAT0211 (GALILEO 14),24.952466393097975,-2.037711633932188,23232.44672063314
1046,GSAT0210 (GALILEO 13),-24.683733610224497,178.1947287334002,23223.429412836023
1047,THAICOM 8,0.09649755015823473,78.5957000738491,35779.29887104263
1048,COSMOS 2516 [GLONASS-M],-42.5486076396594,24.68494565043328,19105.213466172077
1049,ZIYUAN 3-2 (ZY 3-2),13.75300186405698,32.70307267317179,505.1081439567101
1050,NUSAT-1 (FRESCO),-24.21858475853907,50.251986803918115,492.2322396903974
1051,NUSAT-2 (BATATA),-4.9591249450388935,56.97069516517439,478.42476221439
1052,COSMOS 2517 (GEO-IK 2),-30.706858163786205,158.40564971970022,954.4074070540794
1053,INTELSAT 31 (IS-31),-0.009359137770860407,-95.03580466306977,35788.11590254982
1054,BEIDOU-2 G7,1.6188576749726866,110.62176398622111,35790.61691698117
1055,ABS-2A (MONGOLSAT-1),0.02744913911955926,74.71627274142776,35788.55148364268
1056,EUTELSAT 117 WEST B,0.0035703295454641323,-117.01055804938783,35787.46026113416
1057,BRISAT,0.010838881837680168,150.53262668853176,35786.00932274214
1058,ECHOSTAR 18,-0.035647199118891776,-61.38197091476534,35790.198643427786
1059,CARTOSAT-2C,-21.946916522743965,-158.7187383876084,521.8203167748503
1060,SKYSAT-C1,17.342043848932313,-145.7170096201038,449.80826824139086
1061,GHGSAT-D,-17.40034024593788,-165.8618476092189,506.80388226125825
1062,LAPAN-A3,82.59449089669039,108.24065752596645,521.6746476770178
1063,BIROS,33.22883054584449,-173.9610634932825,508.4699605397927
1064,M3MSAT,32.27153032820072,13.722283958368381,497.7947765272026
1065,SWAYAM,50.80701921447449,-174.34886263261754,499.6195540461666
1066,FLOCK 2P-9,21.179416746092297,-162.317262077795,488.593642079388
1067,FLOCK 2P-8,-35.72474179001657,16.14804474627216,491.2372169367094
1068,FLOCK 2P-3,-22.381308144145024,-155.21829362169387,496.8067162299957
1069,BEESAT-4,-21.692047860234805,11.802854077792517,491.0698979220981
1070,MUOS-5,2.8343293155463773,-104.3234820239141,36588.130799306695
1071,SJ 16-02,-56.378714579761265,153.54647420135478,636.6485670596894
1072,TIANTONG-1 1,-0.4455710215256193,101.38075345842597,35781.32214311476
1073,GAOFEN 3,66.21417914375529,128.24307184848757,761.8541106991865
1074,JCSAT-16,0.08084463843566843,134.4711813451004,35745.267129595704
1075,QSS (MOZI),-26.54097176428932,55.26993320736701,491.1256331620741
1076,USA 271,1.0558304201487356,120.57624467603087,35837.882844168
1077,INTELSAT 36 (IS-36),0.02262759278284933,68.51277430030649,35793.71604033976
1078,INTELSAT 33E (IS-33E),0.02833554592372951,59.97738819723335,35778.78237726265
1079,INSAT-3DR,0.09990942258501312,73.88812005314801,35804.7699389897
1080,PERUSAT 1,-43.26438964313848,25.356782148961887,715.2485476359526
1081,SKYSAT-C4,-76.91802273183491,-119.68691082110011,477.107103838769
1082,SKYSAT-C5,-82.5005873225081,-48.99373317070898,521.2528556899432
1083,SKYSAT-C2,64.56519878099087,-167.1144669640338,458.195382577686
1084,SKYSAT-C3,-12.469025676212159,-150.3483844661264,453.8316150971002
1085,PISAT,27.549296349363438,14.03041648114142,671.2401963121018
1086,ALSAT 1B,-39.805684926469375,-164.52497468954616,714.2444105680537
1087,ALSAT 2B,77.79204220096042,66.35476116803477,684.0643149785352
1088,PATHFINDER 1,-60.479498087342115,-155.4188799444608,724.5014893544683
1089,CANX-7,5.674744627984474,67.64190633968876,615.1727698560848
1090,SCATSAT 1,-56.84995765237409,-11.418803333532507,748.619370792265
1091,GSAT-18,0.08049204388667063,74.01162088675001,35783.603380835455
1092,SKY MUSTER 2 (NBN1B),-0.009135296949302301,144.80804347342544,35786.42429508317
1093,HIMAWARI-9,0.021138274056213786,140.74318848435553,35785.844913584246
1094,SHIJIAN-17 (SJ-17),1.2337520584759092,117.54780576533277,35780.164953910615
1095,XPNAV-1,-23.628912447418696,-36.84833112041327,512.8139516028335
1096,XIAOXIANG 1,0.3444321789469601,148.1726041339989,484.696317976509
1097,PINA 2A,-46.42801456935459,156.88740756814764,496.3642478686422
1098,PINA 2B,-21.03373838099489,152.47992625415583,486.5666720858239
1099,LISHUI 1-01,80.37869026449464,-178.5568422703034,756.3636304758628
1100,CAS-2T & KS-1Q,74.33487780396226,51.62657120919673,529.7637309665097
1101,WORLDVIEW-4,45.3234987125114,123.31207734496611,332.46568544852767
1102,RAVAN,56.2808546035286,95.76825544977221,584.4504858768838
1103,CELTEE 1,72.69459209093718,106.58518597176007,591.4404433491874
1104,OPTICUBE 04,30.209155795646996,-105.21045765627186,576.942939873249
1105,AEROCUBE 8D,16.89916025701947,-103.10603709469602,573.7540024949988
1106,AEROCUBE 8C,23.434399446265303,82.63221574765704,584.8912803269471
1107,PROMETHEUS 2-1,-23.02046865236045,76.44059615547553,586.616829273774
1108,PROMETHEUS 2-3,-39.540953642971814,73.29096397061663,591.3901595403993
1109,YUNHAI 1,-69.51141588941367,163.87688727215962,807.7316476826132
1110,GSAT0207 (GALILEO 15),1.1141941089752185,-104.80544274834492,23230.040622184424
1111,GSAT0212 (GALILEO 16),-54.75754728509243,-16.434293662098256,23235.902422638406
1112,GSAT0213 (GALILEO 17),34.78121132181453,105.33943376496008,23231.921323108618
1113,GSAT0214 (GALILEO 18),-36.01729041799241,45.103233778823444,23225.12661583863
1114,GOES 16,-0.12480085378829783,-75.22695636881978,35792.35179060347
1115,TIANLIAN 1-04,-0.042597154261998386,177.01807532248537,35869.932390677124
1116,LEMUR-2-XIAOQING,21.524826000082474,34.35819472992634,481.4940423054368
1117,LEMUR-2-SOKOLSKY,-39.76510056975706,-16.523684067944107,490.5838546159231
1118,LEMUR-2-ANUBHAVTHAKUR,22.823571103664175,-150.61684749963777,490.62629415549435
1119,LEMUR-2-WINGO,37.01492239306668,60.3635616349312,485.1203803698837
1120,GOKTURK 1A,-6.684193445823059,-146.91892995322306,688.6169250273607
1121,RESOURCESAT-2A,3.020910260290306,-147.03947058531915,823.5118040203449
1122,WGS F8 (USA 272),0.01125269065319845,149.81817534073673,35787.062996728855
1123,FENGYUN 4A,0.09960075612655155,104.5773308257535,35781.195000595915
1124,CYGFM05,5.273809447307601,-40.08657505341555,522.2547753959204
1125,CYGFM04,-18.034841361348207,150.93552288538808,520.6108483304608
1126,CYGFM02,-32.31801408576449,-170.50060425334794,532.2911901635155
1127,CYGFM01,-32.222305294707006,-162.09345745177887,536.1945288985859
1128,CYGFM08,-6.981337146514584,138.26259429192476,515.9486277028652
1129,CYGFM06,-3.6535518130362905,-61.15070749636428,524.6772884932604
1130,CYGFM07,32.72819850317954,56.849681163222776,511.2501816689185
1131,CYGFM03,28.693480935627505,72.2093843637177,510.4142978010729
1132,ECHOSTAR 19,-0.0293382581825497,-97.09992105532017,35791.32453486477
1133,ARASE (ERG),12.06646143173485,75.80796793412418,8394.04876220305
1134,TANSAT,19.38208367035635,83.24867718274103,691.7631127689384
1135,YIJIAN,59.95865595931909,-80.45767794281436,708.7413991214396
1136,SPARK 1,-53.660321926268736,-108.07475959353589,746.9753531843932
1137,SPARK 2,16.518841544603443,79.22154947196755,694.4893034619893
1138,JCSAT-15,0.03504081823590192,110.07910461005913,35782.16192663886
1139,STAR ONE D1,-0.026452322004244234,-84.01018346317176,35794.79447525071
1140,SUPERVIEW-1 01,-21.27884504335613,-131.29529943768202,527.2453843871409
1141,SUPERVIEW-1 02,66.63685992719954,49.08371240089764,536.5761364704501
1142,TJS-2,-0.24967998227408772,66.43588446366697,35767.47621357005
1143,XINGYUN SHIYAN-1,5.552908332084664,-166.39160745038654,526.987589496696
1144,JILIN-1-03,65.41496941962669,173.9201148418189,549.3027412304867
1145,KAIDUN 1,69.14781007071647,34.13411945223469,546.7875712648561
1146,IRIDIUM 106,-36.85170713124617,-139.42983158895476,793.0687926703584
1147,IRIDIUM 103,-77.6623906481325,21.14661975678764,807.2241398380269
1148,IRIDIUM 109,-69.06054825077433,-132.76466339765201,805.2525096344332
1149,IRIDIUM 102,52.78982341579759,42.50856876219102,785.1345701277229
1150,IRIDIUM 105,-24.137101822885246,-172.22736447484561,787.9569088249648
1151,IRIDIUM 104,-12.870838593850918,36.97315843297009,783.2589035006102
1152,IRIDIUM 114,-45.495043261845396,34.12827459909392,796.0666746699933
1153,IRIDIUM 108,11.101814287421771,-174.54741484697652,780.0704204381857
1154,IRIDIUM 112,20.060937420341954,39.018146011461994,779.753409935106
1155,IRIDIUM 111,84.3256182161188,76.81522469305227,789.6415476365324
1156,SBIRS GEO-4 (USA 273),-1.8744046116114215,-159.34729435876775,35792.77266692927
1157,HISPASAT 36W-1,-0.001069398046693309,-36.00160932963722,35785.8578578019
1158,TELKOM 3S,0.03880879741963933,118.0310184470472,35781.27343603324
1159,INTELSAT 32E (IS-32E),-0.030932168142836655,-43.15883660837643,35784.085174960695
1160,CARTOSAT-2D,41.4518926001677,26.108988857487514,516.9210297903148
1161,INS-1A,-73.42714897587607,-132.66586405531405,508.53399935507787
1162,FLOCK 3P-8,82.48859376324867,102.31891856212086,499.94204288741844
1163,INS-1B,-82.64317796481818,-58.90543380803379,510.49058156607697
1164,FLOCK 3P-24,-21.783967299569223,26.668893596774033,482.9442175665466
1165,FLOCK 3P-4,-43.58501767886397,19.724162089797098,495.9616316608919
1166,FLOCK 3P-2,-25.58076219918467,23.347778115398885,489.7956197923879
1167,FLOCK 3P-3,79.72937525434897,162.338784158983,497.8687254058999
1168,FLOCK 3P-12,-64.68533424869527,-137.41689393015815,502.1087627329538
1169,FLOCK 3P-11,-59.62582022833718,14.238468128348666,501.37041334905473
1170,FLOCK 3P-60,29.08725505431997,-156.98439753303654,486.0028790964268
1171,FLOCK 3P-58,-81.99740448752085,-38.42166312405445,505.90859489034534
1172,FLOCK 3P-57,-15.631372402730504,-151.0541757935959,485.90256558080847
1173,FLOCK 3P-70,-30.759131499674005,-148.11168763743245,489.97041450575637
1174,FLOCK 3P-34,-4.778027460250464,-152.33772990100042,484.09798284089703
1175,FLOCK 3P-33,74.92476924151329,54.91064662605759,500.4160373482984
1176,LEMUR-2-JOBANPUTRA,-64.30614322732352,7.950979868377728,508.38819619459207
1177,LEMUR-2-SPIRE-MINIONS,-47.93335181777802,17.85924992228986,497.25169471361625
1178,LEMUR-2-SATCHMO,-44.907137617913314,16.47671137041169,501.46776806876477
1179,LEMUR-2-SMITA-SHARAD,-24.70675738804908,-150.82812955994143,487.52363660763194
1180,LEMUR-2-RDEATON,82.72969878550212,113.07598286347671,502.34744695027683
1181,LEMUR-2-TACHIKOMA,-78.7797123622902,-14.043461092381564,506.1559873009309
1182,LEMUR-2-NOGUECORREIG,-29.15549118358091,-149.55204454890435,487.3320867430062
1183,LEMUR-2-MIA-GRACE,-74.08663002127903,-2.9077705365527136,510.3982990763857
1184,BGUSAT,77.09592558188372,175.0296011210069,490.7376932706216
1185,DIDO-2,7.435254243278704,-158.77696158975357,488.4643630568828
1186,FLOCK 3P-49,73.35945979162476,52.486489774835206,497.1503208991616
1187,FLOCK 3P-61,53.355322474225964,36.89191522298081,494.1378912494333
1188,FLOCK 3P-40,24.91352315940692,30.26334833006189,488.1936869583635
1189,FLOCK 3P-54,-16.793921390264575,24.815503392423235,489.7282770580326
1190,PEASSS,-70.9235156681599,-133.58816891012927,508.14487091411127
1191,AL-FARABI 1,-76.79775852122515,-6.301105345585034,506.71857885511764
1192,NAYIF-1 (EO-88),81.45048046448159,148.5702687199417,495.81040615380726
1193,FLOCK 3P-23,-8.144950153763002,25.65770290872442,485.8714170875973
1194,FLOCK 3P-76,-46.90230527514131,-144.51566080976838,495.73966085543555
1195,FLOCK 3P-32,82.34566055694101,135.05379882000383,498.40282045743174
1196,FLOCK 3P-80,22.342447566366566,30.54051530023193,486.68246890917817
1197,FLOCK 3P-66,64.67344343417453,-168.6540665411587,494.87510818097593
1198,FLOCK 3P-65,70.44356563020352,-173.97752701438526,496.1186541320688
1199,FLOCK 3P-50,81.60250173566976,87.14452668789058,498.2022305850392
1200,FLOCK 3P-46,58.71317371234842,39.052019383566204,495.0641799738884
1201,FLOCK 3P-64,37.63901080774025,32.56377893905087,490.5187441369661
1202,FLOCK 3P-55,7.7408396583732575,-153.99371109431982,481.3724424034503
1203,FLOCK 3P-74,-77.63166629987275,-8.110761348393162,505.39236354728354
1204,FLOCK 3P-31,-44.88631877601525,-145.79712904536368,495.38974710286914
1205,TK-1,-80.02276346942158,-177.1940142702964,404.60894997641066
1206,SENTINEL-2B,-24.952944143103693,-141.78486880885535,798.6845758975934
1207,ECHOSTAR 23,-0.03656403938118863,-67.92899440326893,35792.02825839483
1208,WGS F9 (USA 275),-0.022152501503916792,-11.985832534321736,35787.07350706512
1209,SES-10,-0.023324192919397562,-66.91541015431841,35791.86686514469
1210,CHINASAT 16 (SJ-13),0.02993257895997108,110.48689524575434,35766.017930728296
1211,KOREASAT 7,0.011086524681899584,115.90634222577573,35784.37931370385
1212,SGDC,-0.03134183639625755,-74.86998426058565,35791.91297186691
1213,GSAT-9,-0.06580716996302052,97.30686436776334,35778.38070764876
1214,INMARSAT 5-F4,0.03136907250268739,56.47915934380102,35786.04619760668
1215,SES-15,-0.02434160815479068,-129.14215035783857,35788.28437149274
1216,COSMOS 2518,62.91721277413193,150.8189239267277,37440.118784190556
1217,QZS-2 (MICHIBIKI-2),-29.897349662432354,155.1255142485982,33357.37422720943
1218,VIASAT-2,-0.004733198916266236,-69.9014584920426,35786.520756635815
1219,EUTELSAT 172B,0.014399101808786162,171.99875479907942,35785.55329677761
1220,GSAT-19,-0.007395975163751471,47.900375230180515,35758.969711463506
1221,ECHOSTAR 21,3.387647574341413,10.349302736976076,35778.776994534805
1222,LEMUR-2-ANGELA,8.523563933124372,89.60542543937727,469.9145512981754
1223,LEMUR-2-JENNYBARNA,51.02092468526067,-20.093753445009803,460.3671702908602
1224,LEMUR-2-ROBMOORE,0.42565239509647723,-82.22397863393039,459.0405498414354
1225,LEMUR-2-SPIROVISION,9.461518370839096,-89.11677487747495,450.32190429306274
1226,HXMT (HUIYAN),-41.74801833764089,118.81078966021235,556.4892881786342
1227,ZHUHAI-1 02 (CAS-4B),2.2775743518647187,31.908693775485307,534.6587313590946
1228,NUSAT-3 (MILANESAT),38.62635673414142,-90.57987105517697,532.6555958995413
1229,ZHUHAI-1 01 (CAS-4A),-36.46320721079647,85.31923281195252,550.1316722936795
1230,CHINASAT 9A (ZX 9A),0.2330523904077545,169.3824944119882,35942.19051362193
1231,UCLSAT,75.46040691382868,37.17274061848407,501.8023893615045
1232,NIUSAT,12.891084222644578,5.92508564795618,508.2738762485673
1233,CARTOSAT-2E,62.25064835713205,-175.8125832658983,512.0646168959524
1234,LITUANICASAT-2,-81.66886045841693,-50.877167002449596,516.5877883914955
1235,CE-SAT-I,-67.46563467058397,-15.074302318204715,534.4902072283162
1236,LEMUR-2-SHAINAJOHL,-70.33120034856094,-152.4427286399909,517.227769655666
1237,LEMUR-2-XUENITERENCE,-33.40190174849725,-168.3594533586878,497.3369362863593
1238,LEMUR-2-LUCYBRYCE,-68.0634114356788,-10.794436525718258,524.2019034896284
1239,LEMUR-2-KUNGFOO,13.961254950561113,-174.63584741805883,484.0687358902992
1240,AALTO-1,-54.97464290080131,-165.11675894571337,516.3585572652133
1241,URSA MAIOR,-24.256289536845067,-171.74854099087037,498.93173293927316
1242,COMPASS 2,-54.60280254187807,-160.69161849327952,506.22747899449973
1243,MAX VALIER SAT,13.102235024070412,-174.69545415387228,488.4454021399429
1244,LEMUR-2-LYNSEY-SYMO,66.69901857510081,27.429714349546636,497.7525399197942
1245,LEMUR-2-LISASAURUS,-65.95608715560795,-155.08453506300904,516.3783348661261
1246,LEMUR-2-SAM-AMELIA,-31.81267275733013,4.713512078577314,510.6049517742634
1247,LEMUR-2-MCPEAKE,73.0478701951093,164.86883451229784,495.9479812028701
1248,DIAMOND RED,-14.948417638696863,-171.3038590886104,493.6400632460701
1249,PEGASUS,38.39864521079525,13.244210558390773,500.8442511251718
1250,DIAMOND GREEN,-6.00906818773989,-172.42507792522306,490.8459982554671
1251,DIAMOND BLUE,0.7150006652886767,-173.28526496911874,489.3863664597207
1252,NUDTSAT,73.0844346490786,165.46562390310814,493.9385082887784
1253,SUCHAI,-77.63604539651267,-136.21725654974733,518.961313034462
1254,SKCUBE,73.81058134405032,162.4071902090146,498.0210930919062
1255,VZLUSAT-1,75.3250670435085,38.933690168475565,497.77994600798064
1256,ROBUSTA-1B,-72.61669679839765,-147.54153168625373,517.403383211007
1257,CICERO 6,53.33859842497464,17.128506837893035,502.74082789844243
1258,D-SAT,9.781514605881759,-21.37257386610671,605.2450266536258
1259,TYVAK-53B,-40.13701052307979,0.6640748789066814,498.0737321792003
1260,COSMOS 2519,36.37653077891792,-67.60231839755373,408.35054482006484
1261,BULGARIASAT-1,-0.0024339503438144086,1.8729564654498219,35779.43238963053
1262,IRIDIUM 113,-9.130472913773888,91.99309940300365,782.6170320594608
1263,IRIDIUM 123,-25.19255099686891,-58.72668044695695,787.9969261079518
1264,IRIDIUM 120,-41.86749838968128,94.64572138458739,795.0971988158537
1265,IRIDIUM 115,81.97518847618333,-62.77867681099638,759.0929745572956
1266,IRIDIUM 118,8.523164088829144,122.42917642396546,779.6052129839246
1267,IRIDIUM 117,72.87474830377951,-45.33503146709664,788.5527787998966
1268,IRIDIUM 126,-57.8417810935695,-62.75244370355568,801.5536561633085
1269,IRIDIUM 124,66.17450199567563,-112.24469105436432,757.7206578580137
1270,IRIDIUM 128,-10.171095938206085,-26.136308931726177,782.9704713742788
1271,IRIDIUM 121,-24.291865675479293,124.60038672130098,787.4791215975536
1272,HELLAS-SAT 3,0.07287708229467071,39.00977725368224,35776.72618747644
1273,GSAT-17,0.10743424366489626,93.47647056533268,35783.02576499446
1274,INTELSAT 35E (IS-35E),0.01898505351043049,-34.498540310016445,35787.35403851566
1275,KANOPUS-V-IK,-80.70897982071875,175.5969244835626,536.6220889225297
1276,NORSAT 1,70.661666829341,-151.19319896429826,609.3436267679913
1277,2017-042C,-66.63097321437168,170.03082703055708,621.3991391167234
1278,NORSAT 2,11.308492467540878,-170.01737558673707,604.0933906025027
1279,TECHNOSAT,-33.467054626976875,11.917036420697267,598.3378891163072
1280,2017-042F,54.65151429800955,-159.6137184133454,604.1983017730514
1281,FLYING LAPTOP,66.92894107718053,-154.97234622798098,608.8479296946537
1282,2017-042H,-41.504469837744075,-179.06532368042656,616.0845246572065
1283,2017-042J,51.82815483536163,-162.79599783901972,607.4589932678904
1284,2017-042K,6.066111582520205,6.9005809576809245,586.0851831846256
1285,WNISAT 1R,17.79599158915346,4.888223997647027,587.2590469276115
1286,2017-042M,45.139519440256194,0.07976604186834961,593.3345235033783
1287,LEMUR-2-GREENBERG,-70.30034889630072,168.09852983922693,618.1628822790708
1288,LEMUR-2-ANDIS,-82.56219931866077,102.08054862908912,617.4485356763307
1289,LEMUR-2-MONSON,26.770591959084808,5.489382977465381,586.5123746007442
1290,LEMUR-2-FURIAUS,-68.7686399198711,29.184813489267825,612.4185211453085
1291,LEMUR-2-PETERG,15.908806144809928,-167.58630120146339,600.0840063684923
1292,LEMUR-2-DEMBITZ,-10.187519433786349,-171.15524099877095,602.4137187503508
1293,2017-042U,66.60098964313016,-8.97807061316362,601.2711286804426
1294,NANOACE,43.10533255642473,2.5279675101179926,591.5189445774248
1295,LEMUR-2-ZACHARY,50.47520453882127,0.4914532906993289,591.5292150565973
1296,CORVUS BC2,-69.46188723281873,169.18740781416736,618.3531470243062
1297,CORVUS BC1,63.439824885982425,-5.31973894808603,599.1202834393091
1298,2017-042Z,71.11386538247122,-147.06268561125236,603.938283526857
1299,2017-042AA,12.240581494709849,-167.8117474969265,597.1490885086953
1300,FLOCK 2K-3,-46.659708820922205,-2.072016631963295,441.48170035689543
1301,FLOCK 2K-45,-83.04468690671288,68.8211812583127,450.7716888157312
1302,FLOCK 2K-21,-70.38395407513192,10.367698470943203,448.8178436173182
1303,FLOCK 2K-7,-19.034548098592698,-6.797233700010808,432.84176763701817
1304,FLOCK 2K-40,-34.93441773370303,-4.389257984181651,437.4713936484742
1305,FLOCK 2K-39,2.813159085688361,-9.514916024799973,429.7133739295927
1306,FLOCK 2K-37,22.243990389941427,-12.016581182143275,431.07170852491805
1307,FLOCK 2K-31,42.13450298606104,-15.456520482553385,436.1351777978979
1308,FLOCK 2K-32,60.4802423495154,-21.411892887883383,440.5573605532581
1309,FLOCK 2K-29,77.23647028161606,-41.02432829209698,443.9015295879872
1310,FLOCK 2K-30,80.64416206510322,-142.64889917618888,444.04393126389243
1311,FLOCK 2K-44,61.32932120276263,-176.6353487559664,439.9858368107175
1312,FLOCK 2K-41,-66.9765690018296,154.6071399697036,446.61023624164767
1313,FLOCK 2K-35,45.334867193645245,177.8274985846927,435.61152172903803
1314,LEMUR-2-ARTFISCHER,-47.05107249248932,162.39576741475588,440.6076779219561
1315,FLOCK 2K-19,26.56017734041805,174.3062527217874,430.64598057149055
1316,FLOCK 2K-18,7.905415756500168,171.84940901566068,427.864667918783
1317,FLOCK 2K-15,-9.314701040577427,169.9074030061823,428.5590213911591
1318,FLOCK 2K-12,-47.195534192574264,163.54287129384684,439.98184313348486
1319,FLOCK 2K-10,-30.904102672151094,166.73534062529333,433.90450333909126
1320,VENUS,-56.11270026792524,-132.9877087569161,462.1792503963818
1321,COSMOS 2520,0.01848411194545129,45.05483073445256,35782.483539769135
1322,TDRS 13,4.9488329218689815,-11.598678117256242,35715.74196830161
1323,QZS-3 (MICHIBIKI-3),-0.0004042992527316966,127.06109707902735,35781.2233881348
1324,FORMOSAT-5,23.488464449762688,-145.0946333830047,730.1680178325776
1325,ORS-5 SENSORSAT,-0.010705668435818728,-110.78589209131181,583.4103554946327
1326,AMAZONAS 5,0.00580368527408875,-61.02495003085133,35787.69423824305
1327,COSMOS 2522 [GLONASS-M],64.23471771546677,-89.70543242074699,19162.116866143824
1328,ASIASAT 9,0.030860651829628046,122.11918322722859,35782.84770165047
1329,YAOGAN 30 A,-26.516784981408705,99.1934187595804,601.6192823900426
1330,YAOGAN 30 B,33.30213154177271,-14.536457894167068,598.175951229774
1331,YAOGAN 30 C,-4.929879164562686,-132.3720887124992,596.3238214940055
1332,INTELSAT 37E (IS-37E),0.003992998048001871,-18.038798155216337,35787.85905174579
1333,BSAT-4A,0.06790076621755509,109.8660249657028,35786.29878851894
1334,VRSS-2,-42.56086422516404,-139.96280563252827,670.9830425033922
1335,IRIDIUM 133,-6.578994353057432,154.99730294686333,782.0191810468333
1336,IRIDIUM 100,-39.364513992313015,157.49169346879268,793.801046550055
1337,IRIDIUM 122,22.708088454767587,-23.956542656228432,779.8238171761072
1338,IRIDIUM 129,-71.59238356399572,165.44282255324768,805.9854178370205
1339,IRIDIUM 119,55.39041458209635,-20.214440178645333,785.5413040157856
1340,IRIDIUM 107,-42.78708109628065,-28.740044668545103,795.2215337977724
1341,IRIDIUM 132,-75.10939360922713,-39.056890508311646,806.6261981316616
1342,IRIDIUM 136,58.87603713516503,148.61825941968766,786.2257611951602
1343,IRIDIUM 139,86.01468325149273,38.70126789830877,789.7373950244711
1344,IRIDIUM 125,26.391586139972382,152.85606169825422,780.4264938323125
1345,QZS-4 (MICHIBIKI-4),-11.546893888510846,125.43337071768639,34556.21301839146
1346,SES-11 (ECHOSTAR 105),-0.03445602664806016,-104.97031959628906,35793.00933225657
1347,SENTINEL-5P,53.191848694645394,-89.02587015325481,834.8752639655262
1348,KESTREL EYE IIM (KE2M),23.505132170155054,-108.75106854226286,237.74125870833433
1349,KOREASAT 5A,0.05175875073512598,113.16116030394724,35784.54308448845
1350,COSMOS 2523,-59.80081180505809,-149.11358783984588,629.1036511213574
1351,SKYSAT-C11,15.998495895199492,77.6487196540369,453.7827185745922
1352,SKYSAT-C10,-63.151229417354216,61.06662081200669,472.8880002979581
1353,SKYSAT-C9,-70.69259228806614,-83.84153598362697,472.7933204682574
1354,SKYSAT-C8,-20.04897801751737,-101.38778336483972,453.51490702098107
1355,SKYSAT-C7,43.47152280150002,-110.92111692670478,451.22722073243585
1356,SKYSAT-C6,75.00371116558233,104.55429616167183,457.76690751897064
1357,FLOCK 3M-4,-8.966269793106898,-108.58686761993694,505.24273132247043
1358,FLOCK 3M-2,-23.06353774340606,64.99012958229117,505.2347707608845
1359,BEIDOU-3 M1,33.148256304224475,-158.7761567223866,21557.074958958077
1360,BEIDOU-3 M2,-1.497247660023086,-130.98121326278067,21546.79610900988
1361,MOHAMMED VI-A,-81.9644757180784,-68.02719223636741,668.1584044119107
1362,FENGYUN 3D,-24.02966354884044,-102.43905616167261,836.3359734647473
1363,HEAD-1,75.40092091444679,-46.29526296504384,822.8876708943725
1364,NOAA 20,-44.14502529407904,86.35528938193231,844.3314798285193
