,Name,Latitude,Longitude,Elevation
0,TDRS 3,13.185265414004283,-48.17626387480005,35901.478247000494
1,FLTSATCOM 8 (USA 46),-8.461924422006188,71.24157645877065,35798.44947906857
2,SKYNET 4C,-0.6626531771313832,33.72493827067482,35777.42406809615
3,TDRS 5,-5.643633067652204,-167.13268672085644,35703.8567783387
4,TDRS 6,14.06188908760413,-45.848974047640624,35748.62645709215
5,UFO 2 (USA 95),2.49970827943828,28.955224970694754,35773.74276694714
6,USA 99 (MILSTAR-1 1),3.7809003682487514,-90.49384719746267,35780.070325399705
7,ASTRA 1D,6.027528149399996,-73.4281999718198,35776.74154703613
8,USA 107 (DSP 17),10.55382783107309,-97.44340604906382,35782.84326161433
9,UFO 4 (USA 108),-8.099849363824717,172.72316741764305,35813.597139025056
10,AMSC 1,3.1111477995465617,-107.84213657762363,35776.31848605492
11,TDRS 7,-11.518082873274027,83.81044533297901,35908.98035195301
12,USA 113,-8.756082560535477,103.13656876338179,35791.84257547419
13,USA 115 (MILSTAR-1 2),3.3872434039827444,-120.40741034815719,35790.81460707926
14,INMARSAT 3-F1,-0.02725701061272117,-91.58897501857663,35851.298710673596
15,INMARSAT 3-F2,-4.533849215266427,148.807868098885,35900.734016063594
16,AMC-1 (GE-1),-4.019534779445592,-130.8198585788213,35790.74390992686
17,INMARSAT 3-F3,5.7818510636184595,29.29644587965005,35848.37755335315
18,INTELSAT 26 (IS-26),0.49671888167756373,66.22162864876992,35795.20620564484
19,GALAXY 25 (G-25),2.9034790817532157,32.927156236406034,35782.83671806719
20,INTELSAT 5 (IS-5),-4.942392273557115,-136.8635204203713,35787.88176411461
21,AMC-3 (GE-3),-0.19187162157423113,-72.0243492319478,35780.04116629016
22,NSS-5,4.325948927870323,50.74232336470423,35780.18525333066
23,USA 134,1.02358495686519,-112.54547833100618,35771.60028306129
24,ASTRA 1G,5.4577042762148835,19.51762277154386,35773.15453183069
25,INMARSAT 3-F5,2.8137469875641186,-54.13028666442633,35769.909997543444
26,UFO 8 (USA 138),-8.443143329595191,171.8708334612262,35804.35871798365
27,ASTRA 2A,2.6378636549502037,27.972558498523707,35781.45707715726
28,JCSAT-4A,-3.271268023905366,135.9476854813825,35778.12752291668
29,SKYNET 4E,8.279951575566606,-0.6609952715075671,35776.274009955014
30,ASIASAT 3S,-4.344645991455168,147.73577436977158,35805.10949493784
31,NIMIQ 1,-0.9018807131355511,-86.58104500216653,35775.13267643153
32,ABS-7,1.983378666371323,33.3922500869696,35778.6762667767
33,ABS-6,-0.01578982417500773,158.99978600293946,35798.39852508567
34,AMC-4 (GE-4),-0.7278399974976718,-134.93083065344484,35792.01848003183
35,UFO 10 (USA 146),8.326532394768575,-22.856721271731622,35761.36111718877
36,GALAXY 11 (G-11),-1.2148143145774248,-93.0665846145797,35786.80109125622
37,USA 148,-8.6374943019402,-179.45138097961765,35793.607251634894
38,ASIASTAR,-0.18242248257157026,105.04614778598085,35795.900828216545
39,USA 149 (DSP 20),-7.209470661359563,-164.86424230250998,35794.33627572915
40,EUTELSAT 80A,3.8107081357382566,-12.616129103135174,35779.85283682231
41,TDRS 8,-2.6279652689184343,88.56682567524022,35858.93446060707
42,INTELSAT 9 (IS-9),4.044577854814326,-50.18788510598864,35777.04283421518
43,NSS-11 (AAP-1),-0.007642337285100134,175.99242123872122,35792.34831965938
44,USA 153,-7.288226577628226,134.04993277548832,35791.86993461814
45,AMC-6 (GE-6),-0.00635439297880687,-139.03124238725053,35794.359959882335
46,INTELSAT 12 (IS-12),2.861967409292119,64.35968962340077,35798.26998522205
47,INTELSAT 1R (IS-1R),-2.640273504621838,157.02972219201948,35785.13346964913
48,ANIK F1,-0.5318867651919649,-109.32985553929284,35773.318975408794
49,ASTRA 2D,3.681827407437178,57.425284975274316,35783.258835850975
50,AMC-8 (GE-8),-1.61956828902797,-135.02397487048876,35791.479316064266
51,USA 157 (MILSTAR-2 2),-0.2336899416053836,-124.19050802819116,35791.91227264496
52,EUTELSAT 133 WEST A,-2.725180935888178,-132.86245250245747,35792.74514207563
53,INTELSAT 10 (IS-10),-4.649713451375039,177.7646080233794,35795.952115248096
54,INTELSAT 901 (IS-901),-0.012049562121283811,-27.51903381858848,35783.296800198616
55,ASTRA 2C,0.5266762474723282,-61.43261393479746,35841.482293993555
56,USA 159 (DSP 21),10.74169647321934,-49.53734070760613,35782.256580673646
57,INTELSAT 902 (IS-902),0.2584864951630221,-50.126080721920374,35775.65571215243
58,USA 164 (MILSTAR-2 3),5.877185422961273,19.36808242441359,35780.9946125827
59,ECHOSTAR 7,0.0262821694591483,-118.80051101693934,35785.50173137782
60,INTELSAT 904 (IS-904),1.3386474943971827,-29.5241490223685,35773.02927047082
61,TDRS 9,3.619055616411718,-62.28097897303758,35791.984295269256
62,ASTRA 3A,0.40004222539163076,-86.8785789008878,35786.03856446702
63,NSS-7,4.3794981893939005,-20.109150842206752,35775.7655157364
64,DIRECTV 5 (TEMPO 1),-0.2839416527465483,-110.15890197471379,35787.38701404062
65,INTELSAT 905 (IS-905),1.3806607432371985,-24.50877617100616,35775.29771034036
66,GALAXY 3C (G-3C),0.004894701230887586,-95.02912968959986,35785.80049113538
67,EUTELSAT 5 WEST A,1.260148424993746,-4.992604142375099,35766.3898094107
68,METEOSAT-8 (MSG-1),4.742850872502418,41.61624734149702,35784.94982671853
69,INTELSAT 906 (IS-906),1.1040670191137016,64.19668383242455,35781.9524728868
70,HISPASAT 30W-4,-2.056763827358383,-143.0986133234697,35797.5442519145
71,TDRS 10,-7.244858396272298,-170.97710926115093,35763.61469806662
72,NSS-6,-0.7682299207131976,-169.54782333404066,35799.943831638324
73,NIMIQ 2,1.0894434713260193,89.62917718133893,35824.52530071609
74,USA 167,-4.307046127997893,-130.04823378647322,35781.18337343176
75,USA 169 (MILSTAR-2 4),-9.56031122145488,152.0314108131177,35797.53631695345
76,GALAXY 12 (G-12),-2.2922968044937573,-128.989959787514,35789.53075679189
77,ASIASAT 4,0.19353111463167222,38.24155324889611,35780.30391084088
78,HELLAS-SAT 2,-1.534280751081285,-95.23814183031111,35782.793166401854
79,THURAYA-2,2.0160008065720283,44.176143500260785,35783.41998213266
80,OPTUS C1,-1.4767644688100565,155.6875706380673,35811.31701178662
81,GALAXY 23 (G-23),-0.023128690732222155,-121.00566529990935,35788.4264157193
82,USA 170,4.911209229568791,-42.83080526558744,35770.09062036574
83,GALAXY 13 (HORIZONS 1),-0.03945906582155994,-127.01330586341393,35785.91579870947
84,YAMAL 202,-1.2904366100482125,163.44729441516998,35816.7221153998
85,UFO 11 (USA 174),-0.93684526776749,74.61607011841645,35802.22330800345
86,USA 176 (DSP 22),-3.5914986467660457,87.11812299469086,35785.98127538905
87,ABS-4 (MOBISAT-1),1.3386586629809012,61.062947170431414,35780.7800429659
88,EUTELSAT 7A,-1.3111402426202237,-139.2644322403621,35796.88032595977
89,AMC-11 (GE-11),0.03458085218921449,-131.0122665455916,35789.43694925819
90,INTELSAT 10-02,-0.01918389081733992,-1.0095791172150455,35783.277566456185
91,ANIK F2,-0.021943749627497934,-111.06556685273814,35791.06381928161
92,AMC-15,0.008296902091205403,-105.08571411999503,35786.457834234294
93,AMC-16,0.00404508226927059,-95.81319883212788,35958.852875826225
94,NSS-10 (AMC-12),0.8072010644944746,-37.485220318558774,35774.82367948345
95,XTAR-EUR,0.03902629391047316,29.009073127251728,35779.3807730938
96,XM-3 (RHYTHM),-0.008545869190639092,-85.11613074528158,35782.99902020172
97,INMARSAT 4-F1,-3.3873157589144918,143.50332745421744,35797.021066194735
98,DIRECTV 8,-0.0006907013373921106,-119.13090482132463,35790.53928696031
99,GALAXY 28 (G-28),0.0035030022039932935,-89.00936272695957,35784.29753455742
100,EXPRESS-AM3,2.8121881130305892,22.976729367297057,35780.67902301322
101,THAICOM 4,-0.013648117135811457,119.4995738340081,35793.7085953378
102,GALAXY 14 (G-14),0.4793147973176029,23.58014630582458,35710.550975662765
103,ANIK F1R,0.005195387410367292,-107.32740701320392,35779.28272450745
104,GALAXY 15 (G-15),-0.00603633550652983,-133.02093329533798,35789.86887018945
105,SYRACUSE 3A,0.33965976142018106,47.02466316261241,35781.33909494986
106,INMARSAT 4-F2,-0.056759372134102544,63.91601973681071,35782.04315637559
107,TELKOM 2,-0.11502953951957057,-91.98861911892948,36108.2158853903
108,SPACEWAY 2,-1.153262911659122,-138.88576330029446,35786.818140351934
109,METEOSAT-9 (MSG-2),5.324315898373352,3.3197990134580886,35781.8267774057
110,EUTELSAT 174A,-0.06027397106838468,173.9902217106176,35811.117372361325
111,ECHOSTAR 10,0.002793776517844067,-110.22511152063205,35787.461500445235
112,SPAINSAT,-0.022319112343857892,-30.018246973714707,35773.52341316616
113,EUTELSAT HOTBIRD 13E,0.04332200354160729,12.99227813132651,35760.93039183961
114,JCSAT-5A,-0.006906837430779368,132.0689022340861,35792.20846028792
115,ASTRA 1KR,-0.03500757876712615,19.178941568407296,35771.90283879801
116,EWS-G1 (GOES 13),0.02795826708862031,61.31121135262355,35763.13819339575
117,EUTELSAT 113 WEST A,-0.03668318376215739,-113.02990837740028,35787.47364986454
118,GALAXY 16 (G-16),-0.029565472417923393,-99.02901213229434,35784.33793040142
119,EUTELSAT HOTBIRD 13B,0.06205089428920426,12.982872208865999,35776.71481858747
120,JCSAT-3A,-0.0045466454490755495,128.01009666273518,35793.53438644844
121,SYRACUSE 3B,0.023371102206665873,-5.186305555216508,35765.88113658783
122,KOREASAT 5 (MUGUNGWHA 5),0.015618882973281033,113.07445068765138,35786.659470067694
123,DIRECTV 9S,-0.030561996183494793,-101.23607125594735,35785.197306939815
124,OPTUS D1,-0.009228384725604465,159.99990487763446,35800.77987693481
125,XM-4 (BLUES),0.026618573712387246,-115.22614961260548,35786.73987233979
126,BADR-4,0.009337556058226872,26.014693598219356,35776.158267555606
127,WILDBLUE-1,-0.003774718818843589,-111.19682450156733,35786.0986628145
128,AMC-18,0.023897673255747966,-83.03604044577554,35782.64122926414
129,MEASAT-3,0.1478430248904486,77.95141851219627,35836.66996338414
130,INSAT-4B,0.8542052265383994,85.57885848442558,35775.45022512757
131,SKYNET 5A,0.621987941780229,95.24132889478987,35791.89472372448
132,ANIK F3,-0.020536453646644758,-118.73829735875309,35785.524943914745
133,ASTRA 1L,-0.033463278046917705,19.18830102922192,35783.05027645033
134,GALAXY 17 (G-17),-0.005037244131451352,-91.0250293121317,35783.58634284865
135,ZHONGXING-6B,0.0028536113505800787,115.54940675022254,35797.705533569075
136,DIRECTV 10,0.006928331655999932,-102.78749516382538,35787.58396891441
137,SPACEWAY 3,0.0012145299871456929,-94.96438651472982,35787.001862415535
138,BSAT-3A,0.011547192862439982,109.87994396257629,35782.597402088504
139,OPTUS D2,-0.00752350981751436,152.0071300000483,35800.9134509909
140,INTELSAT 11 (IS-11),0.004756706211274483,-42.98832864563757,35780.45343639437
141,WGS F1 (USA 195),0.043900727825920555,6.000878276832726,35780.6268673728
142,STAR ONE C1,-0.032355848831092264,-65.03761865945548,35781.45282349131
143,SKYNET 5B,0.7536129223710408,25.137575978734173,35773.16261387831
144,ASTRA 4A (SIRIUS 4),-0.009035200699087089,4.818969151899806,35776.307181855285
145,HORIZONS 2,-0.004642465001633121,84.87991433927718,35789.686406639776
146,THURAYA-3,-3.06640008364575,98.46689137189465,35800.731793089224
147,EXPRESS-AM33,0.21971969340782674,-5.7341395460304065,35827.349106270914
148,THOR 5,0.016825896323830337,-0.7516578710819872,35776.62226025459
149,AMC-14,16.92662618720073,20.51285879851484,35859.39280520572
150,DIRECTV 11,-0.011882974038909583,-99.17948517068695,35786.76106233652
151,ICO G1,2.318443173981448,-92.94423889898377,35784.82430606433
152,VINASAT-1,-0.014470526252782771,131.95255088640695,35790.88723062247
153,STAR ONE C2,-0.002297868704030066,-70.05068421593674,35785.79072426791
154,TIANLIAN 1-01,1.6742791601493046,79.808921629264,35832.302431472
155,AMOS-3,0.0426986097518858,-4.093421727337657,35776.83210594372
156,GALAXY 18 (G-18),-0.03454503504968322,-123.03625765124286,35791.030392566696
157,CHINASAT 9 (ZX 9),0.023207998234032596,92.25327755648813,35790.4673816202
158,SKYNET 5C,0.0624963901998672,-17.843008833326646,35769.35374314786
159,TURKSAT 3A,0.04445172394383264,42.03036739933972,35781.13490782795
160,INTELSAT 25 (IS-25),0.014157801107371828,-31.50145216104636,35775.61070548053
161,BADR-6,0.07179905405894385,25.99970742971825,35775.91641421538
162,ECHOSTAR 11,0.011642829705709226,-110.03162719253534,35784.50283183741
163,SUPERBIRD-C2,-0.012231098775312288,143.956706075252,35791.231931659655
164,AMC-21,0.023922832326233354,-124.92695877352092,35789.71259337007
165,INMARSAT 4-F3,1.9311582952198139,-98.06489036229551,35784.57816353531
166,NIMIQ 4,0.003880576488835869,-82.01065812897474,35779.51713469635
167,GALAXY 19 (G-19),-0.011805941633050314,-97.04431234734747,35784.02414325842
168,ASTRA 1M,0.041977900558685256,19.237557888864792,35767.02696572892
169,CIEL-2,0.001537482610174794,-128.88275526426256,35792.11182123195
170,EUTELSAT HOTBIRD 13C,0.06681704675929875,13.015672971552197,35768.99470731853
171,EUTELSAT 48D,0.46611418145215233,-12.463817851509134,35772.33474714021
172,FENGYUN 2E,0.8212313937970891,86.55614272218129,35798.62483238414
173,EXPRESS-AM44,0.012226644417211675,-10.996169392284546,35787.21445406655
174,NSS-9,0.015099841651623223,-176.93156119349464,35793.946929083955
175,EUTELSAT 33E,0.04953086056897356,33.175497110588424,35774.02288696072
176,TELSTAR 11N,0.025207073294289898,-37.55158069122025,35775.80824873733
177,EUTELSAT 10A,0.06577879341372928,10.040237740943526,35765.19290887355
178,WGS F2 (USA 204),0.04046018434709384,57.49745004191496,35785.784017907135
179,SES-7 (PROTOSTAR 2),-0.005815855191684904,108.23060628849737,35784.61357746116
180,MEASAT-3A,-0.0032533086912324696,91.54105222797558,35780.98743785265
181,GOES 14,-0.36123242671273886,-104.29628683371357,35833.53786677411
182,FM-5,0.01303866327779675,-86.13195800101867,35784.54957116829
183,TERRESTAR-1,0.46685305301579,-111.05179392000888,35787.328666917885
184,ASIASAT 5,-0.009765731526640006,100.51818358901203,35792.56591039209
185,JCSAT-RA (JCSAT-12),0.031605262327608345,168.89452387228096,35794.175847617975
186,OPTUS D3,-0.027568152104809115,155.99621272757574,35797.18361777833
187,NIMIQ 5,0.010545956503170638,-72.72478916674893,35782.63418379069
188,AMAZONAS 2,-0.016504697181830303,-61.062027670084575,35773.458468231576
189,COMSATBW-1,0.048603283627533043,63.07699610356749,35782.00605406145
190,NSS-12,-0.0023423611400244194,57.020191341799894,35780.9717463181
191,THOR 6,-0.0021499942101255772,-0.8333271090087531,35779.781464510816
192,INTELSAT 14 (IS-14),0.0109015015478586,-44.99340999468,35777.3388036717
193,EUTELSAT 36B,0.03738655228781307,35.94051438481585,35773.70695513832
194,INTELSAT 15 (IS-15),0.0004475659604384866,85.17381917131537,35787.11421798272
195,WGS F3 (USA 211),-0.08417062591736463,-121.90674334403985,35785.93982678521
196,DIRECTV 12,-0.008683388849158341,-102.71496919169672,35786.94144238474
197,BEIDOU 3,-1.7606910581956559,140.47277618512453,35809.857091494676
198,RADUGA-1M 2,-0.017536872935710827,85.02482688411217,35786.363116217006
199,SDO,-27.972001507129757,-98.6949981066242,35792.56301990091
200,INTELSAT 16 (IS-16),0.002344472525589829,-76.22036871604878,35783.38204857716
201,GOES 15,-0.24179551768137483,-127.97492694109725,35772.55984952386
202,ECHOSTAR 14,-0.01739200603791595,-118.92577154137477,35787.416557353
203,SES-1,0.01794504629143808,-101.02977648787196,35783.19551333078
204,ASTRA 3B,0.025219547476288733,23.52270061339351,35771.191846350695
205,COMSATBW-2,0.03410345018473891,13.198714741335007,35777.68330119841
206,BADR-5,0.03965070675906109,26.006349206072464,35768.177537769814
207,COMS 1,-0.0337646917308081,128.1544461998271,35788.48336613004
208,ARABSAT-5A,0.06262336378047843,30.513156898899197,35767.80039062564
209,ECHOSTAR 15,-0.006777522564308174,-61.64374482214888,35779.167559162954
210,BEIDOU 5,54.0479685643664,111.73586049220908,36215.048489264096
211,NILESAT 201,0.0017169154142007168,-6.961097153636961,35762.17971526627
212,RASCOM-QAF 1R,0.042413801333544714,2.928570950247595,35767.55163312882
213,AEHF-1 (USA 214),3.3916504301299724,3.8970220474091875,35764.40655638264
214,CHINASAT 6A (ZX 6A),0.012909606828071032,125.0439483775013,35793.658852047345
215,QZS-1 (MICHIBIKI-1),22.35270900272028,139.19739999073812,37484.98873602418
216,XM-5,-0.005478910246351123,-85.116996418313,35789.77916618132
217,BSAT-3B,-0.044212871863205876,109.83693476227813,35783.99517894207
218,BEIDOU 6,-0.9199497988486015,160.09633068872435,35803.002515081585
219,SKYTERRA 1,1.1122301423848757,-101.33787825946838,35788.563013012405
220,ZHONGXING-20A,-0.1923213077673883,126.40800889776004,35799.592151503464
221,HYLAS 1,-0.6890999062696203,158.7396538187486,35794.206595217314
222,INTELSAT 17 (IS-17),0.01289215788547775,66.02484720924907,35784.19124564758
223,BEIDOU 7,-18.657882611748157,125.98697141874014,35963.38152663433
224,EUTELSAT KA-SAT 9A,-0.05674898286131465,9.029090397256866,35765.508610315585
225,HISPASAT 30W-5,0.00834515549956822,-30.006395906837803,35762.4325878932
226,KOREASAT 6,-0.021911085166861025,116.01614870798196,35790.98351537698
227,BEIDOU 8,-27.102258608069693,103.24655957669009,35561.59412167532
228,INTELSAT NEW DAWN,0.01194738377054112,32.814002291041916,35780.30606843141
229,YAHSAT 1A,0.03413086879423917,52.49607744364883,35787.44758630436
230,SBIRS GEO-1 (USA 230),-0.968766672412393,66.21314859353103,35785.747583206714
231,TELSTAR 14R,0.020575817744445193,-63.00725479705151,35778.66074257461
232,GSAT-8,0.03062651883306577,55.04316839405168,35779.94894973772
233,ST-2,0.016519408127763945,88.01951011732487,35784.2343288887
234,CHINASAT 10 (ZX 10),0.004698312612109668,110.57261153209771,35788.22278728087
235,TIANLIAN 1-02,-2.2631896226649406,171.02137612980428,35860.630069624334
236,GSAT-12,0.5840431300178405,48.08525066144175,35793.2594493553
237,SES-3,0.016346812761853166,-103.03631467702212,35783.8740847958
238,KAZSAT-2,0.0284571580131993,86.5159119006882,35781.51702311044
239,BEIDOU 9,46.3144839025861,78.46677685270006,36138.569853934634
240,ASTRA 1N,0.022444001823572975,19.222818744117586,35785.26891108733
241,BSAT-3C (JCSAT-110R),-0.0036255287779680028,109.95713218519103,35786.62134570404
242,PAKSAT-1R,0.01904483208850898,38.050474218106324,35794.87194786647
243,CHINASAT 1A (ZX 1A),0.010332321898947885,129.86837291723512,35783.26023300498
244,SES-2,0.030865274595720592,-87.0301499748689,35781.657110834814
245,ARABSAT-5C,0.032843978196374746,20.000486051977965,35760.94391638047
246,EUTELSAT 7 WEST A,0.08640637592989475,-7.301526828056274,35767.437170817546
247,QUETZSAT 1,0.014095543727318286,-77.02227290483057,35781.06783671859
248,INTELSAT 18 (IS-18),-0.03196712369088314,-179.9843018807297,35792.849873490595
249,EUTELSAT 16A,0.038833004665984834,16.023092125136873,35770.022163273476
250,VIASAT-1,-0.030498349837259908,-115.14266593536209,35788.37439574907
251,ASIASAT 7,0.013338145887385506,105.5189266479124,35791.38812688621
252,BEIDOU 10,-33.23610230301752,109.45319126583298,35846.912350990984
253,LUCH 5A,-2.3866599165175577,166.78588753431202,35806.04538365345
254,NIGCOMSAT 1R,0.0031180216049767227,42.515728927291434,35786.723253675314
255,FENGYUN 2F,-0.07042290707141327,111.70135382727311,35794.685276400334
256,WGS F4 (USA 233),0.018376676166665034,88.41263960189546,35784.818952661604
257,SES-4,0.02277325883752739,-22.005521991669752,35775.66708876442
258,BEIDOU 11,1.0441266013813058,58.780020598730495,35813.641560791875
259,MUOS-1,1.3002438059771566,-99.742044677029,35582.74592678872
260,INTELSAT 22 (IS-22),-0.006993478163563224,72.13637118822504,35786.50876339886
261,APSTAR 7,0.02413487828563959,76.52877553121003,35785.136800170665
262,YAHSAT 1B,0.03374016037553975,47.6113256023683,35786.455170604284
263,AEHF-2 (USA 235),1.2133272366849175,-67.77999349044978,35756.63441626706
264,JCSAT-13,-0.005084145702125556,124.02550129705888,35792.30083810175
265,VINASAT-2,-0.018681519770843667,131.85730873294563,35793.12979105033
266,NIMIQ 6,0.007288288973326234,-91.12775464357559,35782.88519101964
267,CHINASAT 2A (ZX 2A),0.026658014052878005,98.25868757438306,35791.96795224726
268,INTELSAT 19 (IS-19),-0.03502087177178149,166.00195765674775,35799.095250241284
269,ECHOSTAR 17,-0.025927352174776434,-107.12698957634686,35785.37251065455
270,METEOSAT-10 (MSG-3),0.7094320759402983,9.319582380667288,35778.743266856836
271,SES-5,-0.009921928741838858,4.989794453257357,35778.02571181228
272,TIANLIAN 1-03,1.2060611325608621,20.435392960287544,35785.03770448036
273,INTELSAT 20 (IS-20),0.02724892747723449,68.49856707410791,35782.692396748396
274,HYLAS 2,-0.03300672290155818,31.071711823547968,35780.242547899994
275,INTELSAT 21 (IS-21),0.004539821848226781,-58.01115473326298,35779.80667970305
276,ASTRA 2F,-0.0756224974449033,28.179387697219592,35774.936785101505
277,GSAT-10,-0.00808129263039349,83.02425779217586,35786.50666324837
278,INTELSAT 23 (IS-23),-0.0010856156374241827,-53.04931584818745,35781.455218766576
279,BEIDOU 16,0.5803325095024575,83.86528550886638,35826.94816350567
280,LUCH 5B,6.23846115992263,-16.44799006473908,35765.92023617735
281,YAMAL 300K,-0.03343469176829545,-177.0454800703489,35782.993805696075
282,STAR ONE C3,0.014600628958111506,-75.00318862798099,35781.69566354224
283,EUTELSAT 21B,0.031373638661671394,21.611383417930686,35777.9507157758
284,ECHOSTAR 16,0.007619269252597796,-61.527000026599545,35779.73394168311
285,CHINASAT 12 (ZX 12),0.017714945728712825,87.52936222163012,35787.982168045666
286,EUTELSAT 70B,-0.05236057669008049,70.53799513924604,35773.56456743917
287,YAMAL 402,0.0428226289198888,54.91998127062118,35782.70736400483
288,SKYNET 5D,-0.0247837453940254,52.805033037140326,35779.90150801445
289,MEXSAT 3,-0.024505747115807754,-114.82353383164889,35789.50214861033
290,TDRS 11,-0.09199955752345075,-174.42953351014444,35782.97758529972
291,AMAZONAS 3,-0.005033089602406432,-61.02848395360129,35784.36057401321
292,AZERSPACE 1,0.00539077326487128,45.97982580796082,35781.789474910525
293,SBIRS GEO-2 (USA 241),0.388743547614733,20.74366918306732,35778.37779273496
294,EUTELSAT 117 WEST A,0.004184676749017065,-116.81276222914505,35788.47748631394
295,ANIK G1,-0.02672174226647699,-107.33108962516621,35788.570258130036
296,CHINASAT 11 (ZX 11),-0.02163346997488719,97.92027641241182,35792.143817700584
297,EUTELSAT 7B,0.046661949662177876,7.033618549739922,35789.88848135272
298,WGS F5 (USA 243),0.00688711757838526,-52.520131491820955,35787.80016505002
299,SES-6,0.01505587053218476,-40.51772000540304,35776.37910257597
300,IRNSS-1A,28.242255106560993,58.700004186330766,35749.956014176154
301,MUOS-2,-1.5411705734749734,-176.6274754619179,35984.740459232795
302,ALPHASAT,0.9172318165318243,24.88300861456689,35776.41522673095
303,INSAT-3D,-0.038541975546760476,82.10226889887686,35785.06319479255
304,WGS F6 (USA 244),-0.03149571877400744,-135.2088846874365,35787.052298522496
305,ES'HAIL 1,0.012642713622839965,25.53092153704042,35779.999543707214
306,GSAT-7,0.05900281138945661,73.9783349688526,35762.34839140115
307,AMOS-4,-0.005514869345900072,65.05911933644389,35787.498802690454
308,AEHF-3 (USA 246),-0.8598037008873713,146.26227916495827,35527.013269116156
309,ASTRA 2E,0.007886877126981507,28.474655419153464,35779.98476811304
310,FM-6,0.020745160561462143,-116.16909165640588,35783.511137195754
311,RADUGA-1M 3,1.4551910604815068,34.95890831610497,35787.75690715862
312,SES-8,-0.01620401935826538,95.02172448550219,35793.28331418332
313,INMARSAT 5-F1,0.03237990303952056,62.56894491501894,35785.55808548142
314,TKSAT-1 (TUPAC KATARI),-0.01005392361662735,-87.2105846925017,35781.69036323836
315,EXPRESS-AM5,-0.015376090941915502,140.00052019812856,35787.54148979371
316,GSAT-14,0.021953685602780222,73.99336104429766,35773.41705585017
317,THAICOM 6,0.051758908783617635,78.5508511071285,35785.504866108124
318,TDRS 12,3.291844779978239,-40.81780233146697,35770.55341649893
319,ABS-2,-0.012130717630279935,74.93311879768666,35792.73713437877
320,ATHENA-FIDUS,0.04059589315161021,37.80578678227236,35784.55286065476
321,TURKSAT 4A,-0.03372071250897641,41.98434049417901,35775.67573897066
322,EXPRESS-AT1,0.006487239407236842,56.014023145644906,35783.45482285574
323,EXPRESS-AT2,-0.0006180423227099803,139.81713404875552,35784.63166844731
324,AMAZONAS 4A,-0.010871128266084057,-73.9920744990717,35781.39747500918
325,ASTRA 5B,0.05000223860789493,31.51851236830693,35774.03962448631
326,IRNSS-1B,-25.74250158324192,58.46961893898588,35822.07175583632
327,LUCH 5V,-0.05270357427465364,94.77683668489502,35794.463948172524
328,KAZSAT-3,0.011407757687173196,58.492181016659615,35783.427731102434
329,EUTELSAT 3B,0.049063139578846844,3.085205338133936,35765.64461184621
330,USA 254,-0.10354694680168222,173.06670160375162,35827.80016377765
331,ASIASAT 8 (AMOS-7),-0.02618406169470741,-3.8840747247148184,35778.6282867909
332,ASIASAT 6,-0.01769776755778735,119.90770670680084,35788.7795634399
333,OPTUS 10,-0.0008043292506978546,156.02499658021662,35802.44412215485
334,MEASAT-3B,-0.030387574049118585,91.53586547026462,35785.96632096837
335,LUCH (OLYMP),-0.02678908776473268,56.93164067170831,35786.29872708218
336,HIMAWARI-8,-0.01705879421965414,140.65755134611032,35787.90761925393
337,IRNSS-1C,2.3692177943731525,83.2324773033653,35759.17102384578
338,INTELSAT 30 (IS-30),-0.0034527296517455563,-95.05457684451758,35778.87339062628
339,ARSAT 1,0.021832363608998488,-71.8229930837918,35783.20880410598
340,EXPRESS-AM6,0.00461258926714332,53.022530719914016,35781.74359750063
341,GSAT-16,-0.06394160217696589,55.16172914916092,35796.831287126835
342,DIRECTV 14,-0.03442429975046809,-99.20669570527444,35784.06256981073
343,YAMAL 401,2.001710167719397e-05,89.85072545355428,35786.03466771281
344,ASTRA 2G,0.01581534183487659,28.232147164652368,35786.49122568992
345,FENGYUN 2G,0.4109377362523778,99.69302514156676,35787.83607147886
346,MUOS-3,1.8233152957818322,-15.927303481882097,35600.98072642681
347,INMARSAT 5-F2,0.017241036120831506,-55.00243572777409,35788.80378734378
348,ABS-3A,0.03662966565150311,-2.9908878006666915,35788.065274987035
349,EUTELSAT 115 WEST B,0.0036440454278294926,-114.92527835099175,35786.182559257635
350,EXPRESS-AM7,0.03640932490889795,40.11318685343369,35778.392297573046
351,IRNSS-1D,-3.468461106577771,112.79470390912167,35871.591403127844
352,BEIDOU 17,-48.63789445286159,104.22835475097865,35838.368916670646
353,THOR 7,0.01713184552703334,-0.6535766931636782,35775.83072656777
354,TURKMENALEM52E/MONACOSAT,0.03158346764834913,52.031604596710736,35781.447323901004
355,DIRECTV 15,-0.02226092185584618,-102.83010320184553,35785.220810191866
356,SKY MEXICO-1,0.00946746915984052,-78.7904507932837,35783.403787922725
357,METEOSAT-11 (MSG-4),0.08961214007126747,-0.3202628274776581,35783.33674606998
358,STAR ONE C4,0.025860897244446995,-70.02307254157779,35779.186786801685
359,WGS F7 (USA 263),-0.03540110383097817,175.0000358197067,35787.319212279006
360,INTELSAT 34 (IS-34),0.018023672483799876,-55.495582570411,35786.46947204399
361,EUTELSAT 8 WEST B,0.04812813683079648,-7.965076735845939,35769.463778339414
362,GSAT-6,-0.07880401544306259,82.61011396347364,35784.86852455312
363,INMARSAT 5-F3,-0.0461201145658373,179.58303858995512,35785.49221725732
364,MUOS-4,-2.0196854582535497,74.5615318078494,35928.31942123009
365,TJS-1,-0.012955156583114188,154.9274851637776,35791.66660240463
366,EXPRESS-AM8,0.015376910031395895,-13.996068644124682,35785.66417787061
367,BEIDOU 20,-24.099706738081416,107.62341196093097,35937.2128344854
368,SKY MUSTER 1 (NBN1A),-0.020907684709170364,140.25585844735411,35793.219110463455
369,ARSAT 2,0.02250935625154049,-81.01899744728047,35781.86235085488
370,MORELOS 3,3.853079722912642,-113.1996536037936,35791.80605259539
371,APSTAR 9,0.0030319479504249134,141.98474510204628,35796.01115672026
372,TURKSAT 4B,0.031049830219240043,50.00232179933857,35780.75122135697
373,CHINASAT 2C (ZX 2C),-0.01990786212529027,103.44024034851522,35793.10065045066
374,GSAT-15,-0.06261936126379031,93.50434374494883,35797.02260737309
375,BADR-7 (ARABSAT-6B),-0.034363050386897805,25.980658192065448,35765.8788185088
376,LAOSAT 1,0.0016523266767305084,128.47183530957082,35790.5070731193
377,TELSTAR 12V,0.03962577797010551,-15.021219412632002,35779.44567892798
378,CHINASAT 1C (ZX 1C),1.525958527168748,81.44676989520914,35791.66098353302
379,ELEKTRO-L 2,1.5705950016309218,-14.598623293767387,35775.092236988916
380,COSMOS 2513,0.05465773536966967,80.27763038574473,35784.89572143377
381,EXPRESS-AMU1,0.035072957558603436,36.107399489463184,35776.85640760296
382,GAOFEN 4,-0.0033803956163527974,105.69877514663975,35783.878573264665
383,BELINTERSAT-1,-0.004587406200623313,51.50908896884037,35786.133838300404
384,IRNSS-1E,3.1262661680444404,112.57885822617386,35703.92158550321
385,EUTELSAT 9B,0.07281087463918093,8.946492851103482,35783.4144994428
386,SES-9,-0.020264575844803893,108.30065852849893,35793.24259029419
387,EUTELSAT 65 WEST A,0.04857223180906212,-65.22505840328712,35781.1776750996
388,IRNSS-1F,0.03362988800025236,32.638539323899934,35859.96597658041
389,BEIDOU IGSO-6,-8.196231739762586,89.91050730836068,35640.83551834289
390,IRNSS-1G,1.912482296577463,129.47851720387834,35805.59690105452
391,JCSAT-2B,-0.030856761302994928,154.00251857572815,35794.29246729665
392,THAICOM 8,0.048705225520876964,78.58674283256462,35796.285536911164
393,INTELSAT 31 (IS-31),-0.0036935518156372533,-95.04972210932723,35791.75501038783
394,BEIDOU-2 G7,-0.4348529985056354,110.511292766262,35821.64689459342
395,ABS-2A (MONGOLSAT-1),0.017616347315443474,74.69255456736013,35793.77164664053
396,EUTELSAT 117 WEST B,0.0018897856984637633,-117.02521804011471,35785.399174023536
397,BRISAT,-0.026970727920516364,150.512431775324,35794.39939743535
398,ECHOSTAR 18,0.006630236423506141,-61.389315283268196,35782.7247109328
399,MUOS-5,6.229535524610411,-106.83278146686679,36275.20445486579
400,TIANTONG-1 1,-2.4963133790835084,101.36495348029483,35795.50204324013
401,JCSAT-16,-0.029836461908619934,135.09156309882258,35746.269622202766
402,USA 271,0.07852717137983033,119.74552743697653,35838.70940997683
403,INTELSAT 36 (IS-36),0.002217571583348469,68.47279234929687,35796.64842052028
404,INTELSAT 33E (IS-33E),-0.0006365027806872679,59.999188541190186,35783.34571158377
405,INSAT-3DR,0.09880297502093184,73.91755361484036,35753.309358739585
406,GSAT-18,0.07646469110885473,73.99843715185793,35794.73398911973
407,SKY MUSTER 2 (NBN1B),0.013845821189148809,144.78881971848946,35792.192738888356
408,HIMAWARI-9,-0.02319012714062167,140.73409944873814,35787.5397997199
409,SHIJIAN-17 (SJ-17),0.07280447253353352,117.54366223425771,35797.063720018195
410,GOES 16,-0.046403946884758046,-75.24899484142672,35787.11948261965
411,TIANLIAN 1-04,0.14729418965489702,176.66572815175175,35869.012483455226
412,WGS F8 (USA 272),-0.0328553555427768,149.80659496207332,35787.65135552465
413,FENGYUN 4A,0.008986135560327506,104.55017407237719,35792.82172284092
414,ECHOSTAR 19,-0.018056809996061327,-97.11491721759747,35786.00234507056
415,JCSAT-15,-0.0007450399081592459,110.07685087517703,35789.174684490834
416,STAR ONE D1,0.007805048168021943,-84.01991044024012,35782.31670427978
417,TJS-2,-0.3818414319005753,66.51112839758453,35768.48674547621
418,SBIRS GEO-4 (USA 273),1.8130928364696846,-159.44830342268028,35793.286511352606
419,HISPASAT 36W-1,0.0034678836652832054,-35.98864240150887,35781.758248158374
420,TELKOM 3S,-0.0018826620558388342,118.02423977501343,35793.02835310236
421,INTELSAT 32E (IS-32E),0.026103075693277723,-43.16780733432748,35788.388881428174
422,ECHOSTAR 23,0.005290483020434352,-67.94533712196176,35782.736159813365
423,WGS F9 (USA 275),0.04633097138112514,-11.987672925180124,35785.43010716307
424,SES-10,0.02177045523024248,-66.90815051941117,35777.91584979223
425,CHINASAT 16 (SJ-13),-0.014770864335691218,110.5746517499239,35768.1943741242
426,KOREASAT 7,-0.01848096273042609,115.90912670800233,35788.25911134955
427,SGDC,0.005875217414244102,-74.86987272500441,35780.89209257602
428,GSAT-9,-0.048375081103803265,97.31127733622365,35791.11995519331
429,INMARSAT 5-F4,0.03098139975642713,56.48598168065566,35784.75492856793
430,SES-15,-0.0032816112195972907,-129.1563243695137,35787.89981142035
431,QZS-2 (MICHIBIKI-2),20.451483343183522,141.37414999979822,37280.890463623145
432,VIASAT-2,0.0013817585302501774,-69.9071775549446,35787.14638055732
433,EUTELSAT 172B,-0.00753953115613557,172.00057838210319,35785.681587511186
434,GSAT-19,-0.026404927492510936,47.94637766240674,35792.662506533925
435,ECHOSTAR 21,-2.3484125032581438,10.210125780044967,35778.902448574234
436,CHINASAT 9A (ZX 9A),-0.2983235062529999,167.2384460299834,35926.71501674793
437,BULGARIASAT-1,0.04554145986676684,1.9040084151305054,35776.47598308581
438,HELLAS-SAT 3,0.03139532358137608,39.01550186779105,35791.81433706183
439,GSAT-17,0.05970792774819264,93.50431276818613,35775.438253899876
440,INTELSAT 35E (IS-35E),0.012973680119654041,-34.490554251843385,35781.23206723007
441,COSMOS 2520,0.0665124887898305,45.080666568628146,35783.76815095846
442,TDRS 13,0.9699926238063921,-11.310742776657145,35740.14500282855
443,QZS-3 (MICHIBIKI-3),0.040780741504452364,127.07094469571966,35786.191449387545
444,AMAZONAS 5,0.023302446401458777,-61.019500340846086,35780.59365892905
445,ASIASAT 9,-0.017444273689092953,122.09642721718707,35795.65577471964
446,INTELSAT 37E (IS-37E),-0.01646907507768547,-18.022993401088836,35775.06877965637
447,BSAT-4A,-0.02679504404292359,109.84534793558228,35796.20769833472
448,QZS-4 (MICHIBIKI-4),-39.13957474854099,144.40343238055894,32748.889718243754
449,SES-11 (ECHOSTAR 105),-0.021492960982446876,-104.97784858013218,35782.526411387546
450,KOREASAT 5A,0.006724292039844692,113.1553645542703,35790.05163834486
451,ALCOMSAT 1,-0.03713067252068252,-24.80150255154011,35777.36032233084
452,SBIRS GEO-3 (USA 282),-1.89298391688495,139.06102620651666,35794.941094632726
453,AL YAH 3,0.009569814145605458,-20.10987458433533,35778.513050530346
454,SES-14,0.026095850786893485,-47.51171069442306,35783.46924391801
455,GOES 17,0.03756437549813738,-137.20713894083275,35787.68525480787
456,HISPASAT 30W-6,0.05343735864548702,-29.973212259362118,35767.562741031245
457,SUPERBIRD 8,-0.020968967400690187,161.98593852699972,35789.609260594996
458,HYLAS 4,3.765104759269397e-05,-33.52954287145259,35773.22772845703
459,IRNSS-1I,28.31298758693335,56.84215435854596,35768.55671070694
460,USA 283,-0.021192137825020455,134.0954101541927,35786.065642923204
461,COSMOS 2526,-0.0038457765681904252,128.06624748557172,35786.71062723867
462,APSTAR 6C,-0.015469029677759673,133.99255095316545,35792.343882154535
463,BANGABANDHUSAT-1,-0.0033839357663795746,119.11294701964803,35791.33885057876
464,SES-12,-0.0022533928704528573,94.98560481124237,35781.316332420574
465,FENGYUN 2H,0.31257110788861925,79.34821945054425,35785.224703474276
466,BEIDOU IGSO-7,54.66699022301989,107.08656534598724,35923.99336304593
467,TELSTAR 19V,-0.0050930664488841,-63.047438934336945,35780.16573140191
468,TELKOM 4 (MERAH PUTIH),0.006169135517028052,107.99880108903979,35788.08679772189
469,TELSTAR 18V (APSTAR 5C),-0.022421479596449058,137.99792567144922,35793.92738042073
470,AZERSPACE 2 (IS-38),0.03650713522744937,45.134361170488404,35782.903117116715
471,HORIZONS 3E,0.002993916020686643,168.98220025624272,35785.537503858344
472,AEHF-4 (USA 288),2.2787763002075407,-150.16104167326458,35800.44511545571
473,BEIDOU-3 G1,0.916630260312567,139.97541876816604,35781.025226939135
474,GSAT-29,0.06273639880672773,55.07054330887137,35785.24331105852
475,ES'HAIL 2,0.0412493632459826,25.76745999130132,35778.37903818637
476,GEO-KOMPSAT-2A,0.0010843964247295845,128.2777427445406,35782.35915043401
477,GSAT-11,0.0021181281193088856,74.08962150548696,35799.66383532158
478,GSAT-7A,-0.06186475752786366,62.78981707401372,35787.437733050334
479,COSMOS 2533,0.03556280434118453,69.98198625216311,35786.59587058675
480,TJS-3,0.21553874629013756,87.76517455067466,35804.83268401557
481,TJS-3 AKM,-0.1445785516938691,59.01087531870997,35765.7658797923
482,CHINASAT 2D (ZX 2D),0.010219482548617737,129.97674450589562,35791.10477633397
483,HELLAS-SAT 4 & SGS-1,0.08236359510742344,39.062973564448114,35767.61268196763
484,GSAT-31,-0.013167324398376505,47.862994013089036,35779.297750990874
485,NUSANTARA SATU,-0.02835693934771944,146.01918940631398,35793.87030592191
486,CHINASAT 6C (ZX 6C),0.0006341456957615993,130.01500549589633,35779.07673925286
487,WGS 10 (USA 291),0.02821831414538522,60.31958084013109,35784.41063481802
488,TIANLIAN 2-01,-0.7810363192632586,80.42694379516797,35778.68027246681
489,ARABSAT-6A,-0.013373752765728029,30.411262375854513,35768.54455776187
490,BEIDOU-3 IGSO-1,-23.763746624102367,102.14480115033179,35714.40801202946
491,BEIDOU-2 G8,-0.26533804811674977,144.45189586724538,35796.76938703561
492,YAMAL 601,0.042547168305361364,49.06577073730674,35781.20775073249
493,AT&T T-16,0.0009616119196319922,-100.80442696286711,35785.36397521526
494,EUTELSAT 7C,0.004853860620188357,7.045174058479327,35776.40736996959
495,BEIDOU-3 IGSO-2,54.707349608509155,103.11383698578248,35823.9295849564
496,COSMOS 2539,0.057895611930343704,12.01631620580703,35784.62240679368
497,EDRS-C,-0.06661905795426393,31.18112280400677,35786.58455863241
498,INTELSAT 39 (IS-39),0.01508692753717774,61.93176426574365,35789.37832279444
499,AMOS-17,0.009737196226108474,16.98928540178933,35778.176675446106
500,AEHF-5 (USA 292),-5.015521218145226,54.5101553548179,35783.00412071441
501,EUTELSAT 5 WEST B,0.03441495845207069,-4.980667644860018,35759.58860986095
502,MEV-1,-0.011931898678152893,-27.517701183645773,35783.25572292413
503,TJS-4,-0.033028241873309085,83.47081924536947,35791.181932394866
504,BEIDOU-3 IGSO-3,-34.47502005403498,122.59185509631618,35839.924515133534
505,TIBA-1,0.012837706707002993,35.489896437009996,35779.760040217254
506,INMARSAT GX5,0.03100560581447171,11.00729762694926,35774.533905324824
507,JCSAT-18 (KACIFIC 1),-0.008276500985921533,149.98749461501734,35788.574818108915
508,ELEKTRO-L 3,0.02207657616916884,76.10149735805162,35781.7276767611
509,SHIJIAN-20 (SJ-20),0.21521107428749936,87.82109246910696,35803.45065090836
510,TJS-5,-0.17387149643319652,107.53904461610765,35795.563660132604
511,GSAT-30,0.037365342542993535,83.0321279523554,35801.31186771561
512,EUTELSAT KONNECT,0.051997566053014546,7.169065722118584,35783.00967104705
513,JCSAT-17,-5.428125926148028,136.17245880343745,35802.80724334785
514,GEO-KOMPSAT-2B,-0.002750330971229284,128.27182611573147,35792.99727411663
515,BEIDOU-3 G2,-2.271243235074928,80.05999332212119,35793.19013260674
516,AEHF-6 (USA 298),1.9695803181298315,171.3061205354563,35888.0814726494
517,BEIDOU-3 G3,-1.3081335401032106,110.52348065424805,35758.881881436384
518,APSTAR 6D,-0.013191588518432542,133.9638440699135,35797.205295743
519,KOREASAT 116,-0.017485702630762778,116.20857466218004,35786.455185542676
520,EXPRESS 103,-0.0047199100880037275,96.48310938969749,35785.89151354732
521,EXPRESS 80,0.004567119230117513,79.95737076427676,35784.44687394669
522,BSAT-4B,0.049454983282207654,109.85651977447736,35794.69043829481
523,MEV-2,-0.016746515989541494,-0.9729775293251931,35781.50640947506
524,GALAXY 30 (G-30),-0.03418086978098901,-124.99861451156518,35790.16486457154
525,GAOFEN 13,-0.19454573087566415,117.77754829806081,35784.8303749878
526,TIANTONG-1 2,-1.8066587326726564,124.98844940789098,35799.06023192654
527,LUCAS (JDRS-1),0.028998336326991114,90.78860102058938,35792.25549920263
528,SXM-7,-0.029896588529659044,-115.3238937587577,35779.31415408044
529,CMS-01,0.06475075442705559,83.03162386333572,35768.288579082124
530,TURKSAT 5A,0.03948261111227872,30.8940025252721,35787.34863260358
531,TIANTONG-1 3,-4.970925991644576,81.61035523428806,35788.59590038594
532,TJS-6,0.4295346002823414,178.51528822783803,35788.970672892945
533,SBIRS GEO-5 (USA 315),7.133396572485753,-119.29535909778369,35707.99128952925
534,FENGYUN 4B,0.037637728880619434,123.69706735874303,35784.56088207122
535,SXM-8,-0.059562501672680256,-120.48926522197448,35788.09197166215
536,TIANLIAN 1-05,-2.4271338400765003,10.825317526712523,35780.10312241889
