,Name,Latitude,Longitude,Elevation
0,TDRS 3,12.225962975991658,-48.03787449938055,35914308.53863132
1,FLTSATCOM 8 (USA 46),-9.997158427172902,71.23917164219648,35803161.24010368
2,SKYNET 4C,-2.977384749549431,33.454971675160834,35778811.28541346
3,TDRS 5,-3.35981034001512,-167.3330003396816,35695108.94306395
4,TDRS 6,13.640702519983105,-45.548254700381996,35747346.904468045
5,UFO 2 (USA 95),0.5963091177473833,28.77704888994131,35774300.44930085
6,USA 99 (MILSTAR-1 1),6.131890729233533,-90.7423649982012,35777721.83525943
7,ASTRA 1D,7.221385728399608,-73.43161852291658,35774633.868267275
8,USA 107 (DSP 17),12.109192308975112,-97.37518088295981,35781302.96254736
9,UFO 4 (USA 108),-7.033516127679565,172.73750491108098,35810462.424201116
10,AMSC 1,4.956391137232216,-107.98943639506017,35774588.19032823
11,TDRS 7,-12.72626491844304,83.89836164616611,35905692.27908973
12,USA 113,-9.97157363700865,103.1880758321254,35792484.68204765
13,USA 115 (MILSTAR-1 2),5.514590782825119,-120.61511104601745,35788704.48304919
14,INMARSAT 3-F1,1.135056068805679,-91.67753391243579,35846102.347847894
15,INMARSAT 3-F2,-5.085085012994114,148.7827860915599,35898585.72709486
16,AMC-1 (GE-1),-3.4894868863928727,-130.8151149180077,35788662.400827736
17,INMARSAT 3-F3,5.206152301112402,29.303513031318776,35852851.94920546
18,INTELSAT 26 (IS-26),-1.126569512071799,66.08075463752233,35798139.51153121
19,GALAXY 25 (G-25),2.795530546166544,32.939397856499426,35786193.93046024
20,INTELSAT 5 (IS-5),-4.138732495859903,-136.86642207989533,35785532.97627603
21,AMC-3 (GE-3),0.4508557971184279,-72.04231080826166,35778220.33052019
22,NSS-5,3.3744648754664484,50.719770353494994,35782737.5198983
23,USA 134,2.7996622585125803,-112.69622849213441,35770918.97921939
24,ASTRA 1G,5.210977658047264,19.562250918405617,35775045.6616801
25,INMARSAT 3-F5,3.614391279477117,-54.140061495277145,35768127.41981439
26,UFO 8 (USA 138),-7.745639225383517,171.93528692643162,35803522.741582066
27,ASTRA 2A,2.5952951032775777,27.984472385136662,35782829.60964483
28,JCSAT-4A,-3.9779838134524756,135.94416821286276,35782260.72866773
29,SKYNET 4E,6.912408737739874,-0.6674557171665549,35776891.799595214
30,ASIASAT 3S,-4.908710731513259,147.74258692698,35804275.802943856
31,NIMIQ 1,-0.567062526625316,-86.58012210106794,35771528.5968364
32,ABS-7,1.9311427800903282,33.40073185644124,35780921.77034559
33,ABS-6,-0.01006750002285668,158.99428843842588,35797504.34508257
34,AMC-4 (GE-4),-0.6918906464490174,-134.93248094462243,35790065.59880005
35,UFO 10 (USA 146),8.104802741454776,-22.74675552854445,35761853.76516445
36,GALAXY 11 (G-11),-0.8811394793242601,-93.07109984775364,35787110.25428066
37,USA 148,-8.050214822080978,-179.36844912050304,35792510.003007516
38,ASIASTAR,-1.0159722269309444,105.00583795610348,35798376.63525419
39,USA 149 (DSP 20),-5.520962848220381,-164.95592831812985,35795859.78613728
40,EUTELSAT 80A,4.117077198735284,-12.59421640792312,35777419.18959673
41,TDRS 8,-4.188806289460234,88.42606358978442,35851795.13567781
42,INTELSAT 9 (IS-9),4.859951928593662,-50.188233999304934,35776035.10858816
43,NSS-11 (AAP-1),-0.004128267354285395,175.98973397834894,35791191.86258643
44,USA 153,-7.951301462555808,134.11095781305949,35792234.69274174
45,AMC-6 (GE-6),-0.0031969749130309854,-139.0347870109773,35792872.6902548
46,INTELSAT 12 (IS-12),2.367187821048645,64.3506850133825,35802122.79051469
47,INTELSAT 1R (IS-1R),-3.045534744058629,157.03377452007413,35784933.36030874
48,ANIK F1,-0.4588787560457122,-109.32227857099416,35766128.584299676
49,ASTRA 2D,2.6951130257020677,57.39129522136864,35784688.6627913
50,AMC-8 (GE-8),-1.5245017668294392,-135.0228805582509,35789661.85905532
51,USA 157 (MILSTAR-2 2),1.4032665752285414,-124.33065536821401,35790670.479010634
52,EUTELSAT 133 WEST A,-2.490919502250675,-132.857776207372,35790157.62023291
53,INTELSAT 10 (IS-10),-4.818781682198398,177.79184272308203,35795711.70662357
54,INTELSAT 901 (IS-901),-0.016850990805133616,-27.51769007338506,35783087.77096546
55,ASTRA 2C,1.1568895066397697,-61.46997635024034,35839746.08636999
56,USA 159 (DSP 21),11.096465717607517,-49.362595765177424,35781396.13017427
57,INTELSAT 902 (IS-902),0.5271941724726673,-50.12446159100878,35774609.242234394
58,USA 164 (MILSTAR-2 3),4.600732109911001,19.32658490278037,35782632.86927865
59,ECHOSTAR 7,0.026496106819871395,-118.80014114256474,35784913.039170474
60,INTELSAT 904 (IS-904),1.6701795956908394,-29.520341057322216,35772647.82676111
61,TDRS 9,4.838614115287166,-62.337286017684136,35807208.76622961
62,ASTRA 3A,1.5317977983567053,-86.94274523783356,35785006.193078525
63,NSS-7,4.786366333365485,-20.081633909149282,35775689.679054655
64,DIRECTV 5 (TEMPO 1),-0.24552246128164018,-110.15897655102727,35785067.02469325
65,INTELSAT 905 (IS-905),1.6698460661565528,-24.504665698189463,35775327.1818345
66,GALAXY 3C (G-3C),0.006534603059753045,-95.02925884016535,35787058.692386754
67,EUTELSAT 5 WEST A,1.3974063058113284,-4.982149365672921,35767599.0107502
68,METEOSAT-8 (MSG-1),3.7004227461624413,41.58714436365609,35785075.4291612
69,INTELSAT 906 (IS-906),0.9728464715879324,64.19870627273878,35784329.92914819
70,HISPASAT 30W-4,-1.9764537117282714,-143.09749026467136,35794485.37151551
71,TDRS 10,-6.7252829161306185,-170.90689970996186,35759096.85612563
72,NSS-6,-0.8119530227941519,-169.55308457301908,35798128.18640052
73,NIMIQ 2,0.2013366594597646,89.5702491329697,35829547.2077816
74,USA 167,-3.221073081751907,-130.0851481714233,35778749.16375755
75,USA 169 (MILSTAR-2 4),-9.670046275613743,152.16410409811635,35797812.42565056
76,GALAXY 12 (G-12),-2.0888166604293286,-128.98636859719304,35788338.49066553
77,ASIASAT 4,0.18951752789358234,38.24389635911562,35781342.67337588
78,HELLAS-SAT 2,-1.0921796759773208,-95.24339992851232,35779769.60539471
79,THURAYA-2,0.9690098130645586,44.12339633002883,35786972.920603946
80,OPTUS C1,-1.7817044971321148,155.67495550630176,35811514.59961474
81,GALAXY 23 (G-23),-0.019697397555275453,-121.00633803054572,35786322.56515365
82,USA 170,5.621498472197908,-42.80748236462882,35768143.0811099
83,GALAXY 13 (HORIZONS 1),-0.03475170749858957,-127.01320194607365,35785576.15253492
84,YAMAL 202,-1.4991911775880833,163.43422932428768,35814703.83001035
85,UFO 11 (USA 174),-2.0189610052359055,74.55101354418696,35804704.04216543
86,USA 176 (DSP 22),-5.057078526714858,87.03470656933426,35787070.70736616
87,ABS-4 (MOBISAT-1),1.1881015149236918,61.065616988444276,35784661.96516523
88,EUTELSAT 7A,-1.246199222695597,-139.2666149023976,35794168.85947048
89,AMC-11 (GE-11),0.0363053164884344,-131.0135259693153,35787681.45447304
90,INTELSAT 10-02,-0.021795878160074753,-1.0083048427335077,35783399.73800945
91,ANIK F2,-0.01617157563869057,-111.06796495082017,35791296.39323451
92,AMC-15,0.012056811109232358,-105.08546448312072,35784443.54622285
93,AMC-16,0.0013933114189664689,-95.87359369637703,35959511.231579036
94,NSS-10 (AMC-12),1.1090649393006107,-37.48320733582237,35774396.127800636
95,XTAR-EUR,0.03681937606412808,29.01183479253973,35780725.07506211
96,XM-3 (RHYTHM),-0.0006164896460884076,-85.11457856080384,35782786.45216715
97,INMARSAT 4-F1,-3.4066794439977643,143.5151746597001,35797764.47167619
98,DIRECTV 8,-0.0004732757298906696,-119.13236184769289,35788771.51576601
99,GALAXY 28 (G-28),0.009274718476436652,-89.00848405549729,35784202.477359064
100,EXPRESS-AM3,2.7900842404249,22.990698389879064,35780879.379756555
101,THAICOM 4,-0.01999378174659118,119.49581494027322,35794778.78978804
102,GALAXY 14 (G-14),0.48543460106398134,23.607217246088545,35711669.95719927
103,ANIK F1R,0.00845709409395634,-107.3240402938294,35778238.862142816
104,GALAXY 15 (G-15),-0.004770749025891326,-133.02246430947233,35788734.14027027
105,SYRACUSE 3A,0.32219385349612245,47.02640362975749,35783504.78525795
106,INMARSAT 4-F2,-0.6105359118553294,63.90179167655062,35784080.27929184
107,TELKOM 2,-0.08623628380467846,-92.09928850656557,36107808.3996922
108,SPACEWAY 2,-1.0974122418188623,-138.88449779894134,35786958.46892928
109,METEOSAT-9 (MSG-2),5.301629627766799,3.363569106567523,35782116.875132576
110,EUTELSAT 174A,-0.05705155405830474,173.9788672995858,35809876.9764141
111,ECHOSTAR 10,0.004992127960718648,-110.22555677989251,35786507.58682231
112,SPAINSAT,-0.02552219776655831,-30.012002265436468,35771585.85416654
113,EUTELSAT HOTBIRD 13E,0.05104264665384308,13.00356971147163,35762153.388697356
114,JCSAT-5A,-0.011052482291338414,132.0659351439801,35792817.55195168
115,ASTRA 1KR,-0.03673032362969825,19.185496335396543,35771794.58529763
116,EWS-G1 (GOES 13),0.03221874433910616,61.32131194895637,35764847.412781976
117,EUTELSAT 113 WEST A,-0.03340272976393867,-113.03008110045371,35785257.17658089
118,GALAXY 16 (G-16),-0.022759943681132953,-99.02782881258823,35782555.47155305
119,EUTELSAT HOTBIRD 13B,0.05210066802238618,12.986894895434856,35777960.11167108
120,JCSAT-3A,-0.010564961473593716,128.00647423690154,35794347.57277933
121,SYRACUSE 3B,0.026378693259100406,-5.177303580242871,35767287.87214807
122,KOREASAT 5 (MUGUNGWHA 5),0.008617162137963829,113.07384333603777,35787985.358538315
123,DIRECTV 9S,-0.027402744605971543,-101.23522811321342,35783169.079524
124,OPTUS D1,-0.009436591597785255,159.99308971217795,35800726.326663606
125,XM-4 (BLUES),0.027049189866858562,-115.22651782236102,35786755.8098125
126,BADR-4,0.001979478171549228,26.019031360086316,35776434.15310407
127,WILDBLUE-1,-0.0016200800829633552,-111.19661931198198,35784924.883984685
128,AMC-18,0.02287650774884984,-83.0341117925877,35781102.47101739
129,MEASAT-3,0.1280644875365161,77.93373414127439,35835972.021654986
130,INSAT-4B,0.6426029357670379,85.58201124245059,35776665.59561766
131,SKYNET 5A,0.36892001063094393,95.2352218735006,35794318.73278155
132,ANIK F3,-0.015338026752556005,-118.73773607473703,35784203.37072066
133,ASTRA 1L,-0.04042051792935921,19.189656473281794,35783063.49700681
134,GALAXY 17 (G-17),0.0022703207989286348,-91.02338888323429,35781257.99542596
135,ZHONGXING-6B,-0.002297613430675618,115.54364303171691,35799139.31503732
136,DIRECTV 10,0.00371126538408535,-102.78820158287603,35787389.1244862
137,SPACEWAY 3,-0.0021051536627884754,-94.96480133122574,35786827.491279915
138,BSAT-3A,0.019642148229168203,109.88107454868101,35784607.84526609
139,OPTUS D2,-0.007620696816962548,152.00018941473587,35801265.41219989
140,INTELSAT 11 (IS-11),0.005139748774101928,-42.98561931440473,35779752.744599156
141,WGS F1 (USA 195),0.045844804820508726,6.003304740031101,35780388.32776654
142,STAR ONE C1,0.004283031733785843,-65.03519500631916,35779957.46300721
143,SKYNET 5B,0.7494542774849537,25.143857643555137,35775076.11177915
144,ASTRA 4A (SIRIUS 4),-0.013724351073500276,4.8232713750377645,35776990.7555135
145,HORIZONS 2,-0.006287234967556599,84.8778318561633,35791381.34001078
146,THURAYA-3,-3.4234788048616487,98.46871604121968,35802760.36586119
147,EXPRESS-AM33,0.2446204381248716,-5.7453099544269035,35828844.55605796
148,THOR 5,0.017015345063026106,-0.7474458553408232,35777162.36062702
149,AMC-14,14.421433865769101,20.507026555359495,35883180.3099812
150,DIRECTV 11,-0.009452043257359974,-99.17985739295602,35786705.08993385
151,ICO G1,2.7942508376263255,-92.94525491528846,35783325.656074904
152,VINASAT-1,-0.014516353650393698,131.95012347350223,35791774.407805644
153,STAR ONE C2,-0.00040913906578583906,-70.05007170488025,35783879.33151317
154,TIANLIAN 1-01,0.8483708020220246,79.75911071329615,35813551.15271405
155,AMOS-3,0.047542967791969426,-4.089377364752071,35777532.5439866
156,GALAXY 18 (G-18),-0.03067879107008831,-123.03812722506004,35788964.95757637
157,CHINASAT 9 (ZX 9),0.018404639120474204,92.2506244810396,35793327.728906415
158,SKYNET 5C,0.0568581491261281,-17.835275229557986,35769156.51023486
159,TURKSAT 3A,0.040067380816977555,42.03180558498929,35784756.61005103
160,INTELSAT 25 (IS-25),0.01474019360209095,-31.496670018648548,35775451.033788346
161,BADR-6,0.06396105735271748,26.00371474687061,35778667.996219225
162,ECHOSTAR 11,0.008166983714696745,-110.03053042922632,35782766.97574243
163,SUPERBIRD-C2,-0.01664754558332757,143.95417296482458,35791896.83539435
164,AMC-21,0.025697809880833967,-124.92830188219207,35787943.65354737
165,INMARSAT 4-F3,2.340724612724009,-98.06560394312648,35782540.323319286
166,NIMIQ 4,0.009784050960124928,-82.0074132309098,35778470.06696923
167,GALAXY 19 (G-19),-0.005820118885098841,-97.04285560688167,35781989.807855316
168,ASTRA 1M,0.04215215809954859,19.245783336979937,35769248.76822573
169,CIEL-2,0.0012544242708927907,-128.8851612450889,35790232.17168639
170,EUTELSAT HOTBIRD 13C,0.06214113535409787,13.022881531429007,35771915.5022469
171,EUTELSAT 48D,0.5441484989959503,-12.457549715059166,35772837.579953626
172,FENGYUN 2E,-0.06147884600880579,86.51071148088873,35798669.07025156
173,EXPRESS-AM44,0.012426397580594335,-10.99667382841674,35786815.765403666
174,NSS-9,0.020546495541974463,-176.93511374285475,35793345.16134008
175,EUTELSAT 33E,0.03872732923783487,33.18031603968027,35776015.64018576
176,TELSTAR 11N,0.027953667256907216,-37.54686569718642,35775770.17467734
177,EUTELSAT 10A,0.05653429905747787,10.049293159143673,35767399.89308878
178,WGS F2 (USA 204),0.035399497418292035,57.4976385484541,35785565.317389555
179,SES-7 (PROTOSTAR 2),-0.011918239531508418,108.23130372939241,35784687.71316335
180,MEASAT-3A,0.002630994490531768,91.54296565461779,35782652.892692074
181,GOES 14,-0.3156976818185643,-104.31739788180475,35830301.937823825
182,FM-5,0.014787821620085075,-86.13139157092154,35784958.85181287
183,TERRESTAR-1,0.9318154416254519,-111.06229258610104,35785308.86072417
184,ASIASAT 5,-0.011430545912116806,100.51497241551226,35793258.01046735
185,JCSAT-RA (JCSAT-12),0.03495552812228856,168.8907020339116,35794156.86497852
186,OPTUS D3,-0.022777238710825622,155.9911484284036,35796711.459072195
187,NIMIQ 5,0.015072903419237763,-72.72276886856888,35780612.538955435
188,AMAZONAS 2,-0.008613857321512423,-61.05554738285822,35770857.580145046
189,COMSATBW-1,0.04001861833449537,63.07819736531608,35784489.94114269
190,NSS-12,-0.004806313486121252,57.02206509246515,35782876.80844937
191,THOR 6,-0.0021951802638272766,-0.8305696036607646,35780387.37391138
192,INTELSAT 14 (IS-14),0.01662002697303829,-44.989227664793304,35776590.8869012
193,EUTELSAT 36B,0.02441888407276025,35.9454911223345,35776381.43510299
194,INTELSAT 15 (IS-15),-0.00563704603709918,85.17293117927046,35788669.12221675
195,WGS F3 (USA 211),-0.07592248995708568,-121.90679257374,35786464.3333032
196,DIRECTV 12,-0.00614817132055807,-102.71539325738856,35786930.85190141
197,BEIDOU 3,-1.8827275775569023,140.46564273368287,35811063.95738422
198,RADUGA-1M 2,-0.0077380364429459406,85.02422703640626,35788215.15348952
199,SDO,-25.195967638596198,-97.99624709053504,35791187.66348559
200,INTELSAT 16 (IS-16),0.008872627491105498,-76.21884894359025,35782105.20485737
201,GOES 15,-0.23821963146525,-127.96803597490191,35770982.17768446
202,ECHOSTAR 14,-0.01239996786773128,-118.92598251601841,35785370.893704526
203,SES-1,0.019174992078480866,-101.02808910493452,35781509.528020956
204,ASTRA 3B,0.018899858522471683,23.52901784729854,35773161.94323822
205,COMSATBW-2,0.03410783066095608,13.20249352134986,35778230.81465199
206,BADR-5,0.04113842801052735,26.014198261802875,35770174.46628994
207,COMS 1,-0.09157935873400527,128.15310345942578,35788785.00376057
208,ARABSAT-5A,0.052762737644507146,30.520976679843084,35770203.2757861
209,ECHOSTAR 15,-0.009126577878926593,-61.64055801615432,35778935.39101455
210,BEIDOU 5,53.74952420093088,118.22739130056237,36167174.41714267
211,NILESAT 201,0.009402067713652233,-6.950514461743995,35763874.135467246
212,RASCOM-QAF 1R,0.04603816297667184,2.9367416969843196,35768932.115401834
213,AEHF-1 (USA 214),3.618466433452099,3.921900596946748,35767869.04426164
214,CHINASAT 6A (ZX 6A),0.008419643386839934,125.0405630393618,35793525.08759111
215,QZS-1 (MICHIBIKI-1),16.7830557908272,137.05825781543746,37016778.834375955
216,XM-5,-0.0036583093700338553,-85.11870097151782,35789575.81562831
217,BSAT-3B,-0.040832738021700996,109.83794558274084,35783909.7810658
218,BEIDOU 6,-0.9375907256931781,160.08912940566,35805603.56905009
219,SKYTERRA 1,1.41489887907592,-101.34115577709741,35787434.93050735
220,ZHONGXING-20A,-0.505014493837382,126.39675363344841,35800506.66958969
221,HYLAS 1,-0.8331859761777771,158.73568565247206,35794231.90719064
222,INTELSAT 17 (IS-17),0.011688353207892244,66.02524382064357,35786108.83160684
223,BEIDOU 7,-11.377243291997127,122.79921680095373,36016117.87619187
224,EUTELSAT KA-SAT 9A,-0.06122572215502292,9.037904395081943,35768449.72091771
225,HISPASAT 30W-5,0.012656887874763219,-29.995222555794303,35761326.86637506
226,KOREASAT 6,-0.026705159012400274,116.0137226085667,35791619.63824763
227,BEIDOU 8,-35.05156821804164,100.28273760168814,35571343.93369818
228,INTELSAT NEW DAWN,0.011431845852780167,32.81638080064831,35780978.954849906
229,YAHSAT 1A,0.02928826547136192,52.495126111654876,35788848.27364952
230,SBIRS GEO-1 (USA 230),-1.2141312823970467,66.21154845881075,35787388.405848086
231,TELSTAR 14R,0.020949665739573246,-63.00392368999846,35778856.72216918
232,GSAT-8,0.026635687391411866,55.04631111250261,35778483.98264316
233,ST-2,0.009400570897511985,88.02017129954626,35785167.30677316
234,CHINASAT 10 (ZX 10),0.00964642380893222,110.57077917491905,35791485.98323052
235,TIANLIAN 1-02,-2.385663933665591,170.9931546268595,35865140.45525692
236,GSAT-12,0.5512581492694042,48.08053573783755,35800752.09889398
237,SES-3,0.01858885694637931,-103.03484568130631,35781793.7481626
238,KAZSAT-2,0.02517415344108617,86.51775391969117,35782392.12860864
239,BEIDOU 9,50.81737838391881,81.52950542056746,36118788.278793715
240,ASTRA 1N,0.014833983360953802,19.222509282717546,35788185.24487534
241,BSAT-3C (JCSAT-110R),-0.009851393678917903,109.95688921018233,35786549.0218615
242,PAKSAT-1R,0.018439243462853402,38.045728452202106,35797427.91519953
243,CHINASAT 1A (ZX 1A),0.006443636647389303,129.8695778949138,35783348.276690565
244,SES-2,0.027482271307550866,-87.0277493123519,35779963.42058504
245,ARABSAT-5C,0.022862896403809303,20.011713879447015,35762609.364080265
246,EUTELSAT 7 WEST A,0.08285652632434001,-7.2929571679700205,35767550.268585734
247,QUETZSAT 1,0.016443843287369725,-77.01961623804965,35779324.32985179
248,INTELSAT 18 (IS-18),-0.03010296163358672,-179.98740847045917,35792378.92831669
249,EUTELSAT 16A,0.02744556167727299,16.029945716631037,35772512.139603116
250,VIASAT-1,-0.02442370342807082,-115.1433159170808,35786577.6626426
251,ASIASAT 7,0.009041773541404861,105.51626524024498,35792012.773775056
252,BEIDOU 10,-26.600988722191378,107.8806294130522,35897657.18121937
253,LUCH 5A,-2.946244180697023,166.77163576436968,35803843.088849604
254,NIGCOMSAT 1R,0.0028417393631077984,42.51508027584005,35788198.73646664
255,FENGYUN 2F,-0.583235162768508,111.6840318501122,35796369.26418453
256,WGS F4 (USA 233),0.012588244808596117,88.41320973032846,35784942.19076311
257,SES-4,0.02265626709107839,-22.000718978700714,35775700.671278045
258,BEIDOU 11,0.8090657112527561,58.76529060384063,35814980.91556722
259,MUOS-1,1.677203426123406,-99.65603321063783,35602349.70353248
260,INTELSAT 22 (IS-22),-0.0052702836977133695,72.13572628220876,35788420.56120431
261,APSTAR 7,0.02002765725594987,76.52864579850109,35787470.976420745
262,YAHSAT 1B,0.030542493318417876,47.61086617489303,35787740.86423467
263,AEHF-2 (USA 235),1.6095204770251685,-67.77059087786805,35753669.10239646
264,JCSAT-13,-0.010342744467941423,124.02229995360753,35793772.57359315
265,VINASAT-2,-0.0172698792141559,131.8538723079147,35793795.18713961
266,NIMIQ 6,0.008962269435681177,-91.12600904213939,35781567.84432811
267,CHINASAT 2A (ZX 2A),0.023095767583771923,98.25596050788344,35791754.17033258
268,INTELSAT 19 (IS-19),-0.03815859585227491,165.99591451697006,35799005.6146991
269,ECHOSTAR 17,-0.02007762269640137,-107.12636961375583,35783918.50818884
270,METEOSAT-10 (MSG-3),0.5295833654024988,9.32157976489764,35779205.65630094
271,SES-5,-0.014950061795797371,4.99332021038997,35778584.53547196
272,TIANLIAN 1-03,1.2376629378006567,20.437082265238505,35788886.83044149
273,INTELSAT 20 (IS-20),0.02292753059308776,68.50005966564437,35783053.2575155
274,HYLAS 2,-0.03440936351978615,31.074058506063874,35781231.84295871
275,INTELSAT 21 (IS-21),0.011034734938486352,-58.00803973664935,35778779.01989478
276,ASTRA 2F,-0.07100136587647785,28.184601130439102,35774850.00751391
277,GSAT-10,-0.009919636770646808,83.02381999389549,35787594.18319636
278,INTELSAT 23 (IS-23),-0.006716577248100362,-53.04691663893993,35780497.232745916
279,BEIDOU 16,0.3891062917464906,83.84603902849432,35822081.91318231
280,LUCH 5B,6.5296307382974215,-16.382433958182837,35766884.62464312
281,YAMAL 300K,-0.03120844180232161,-177.0441178599394,35783003.49243965
282,STAR ONE C3,0.018065639967774466,-75.0009193568951,35780434.43421227
283,EUTELSAT 21B,0.019511193727549916,21.61478453966236,35779554.1405658
284,ECHOSTAR 16,0.014149820662351237,-61.52388029925846,35778919.52919735
285,CHINASAT 12 (ZX 12),0.01310804563049275,87.5279708084996,35789939.98756718
286,EUTELSAT 70B,-0.05853040049861278,70.54314805308536,35776371.235626265
287,YAMAL 402,0.04012446254348641,54.92112117345862,35784298.02220669
288,SKYNET 5D,-0.03690224833849738,52.80745243593651,35781953.37500122
289,MEXSAT 3,-0.018800180048092224,-114.82485689463472,35788276.87187126
290,TDRS 11,0.4620700353088919,-174.44305069566053,35779097.020783074
291,AMAZONAS 3,-0.009778185540582676,-61.02719214196572,35781989.5989022
292,AZERSPACE 1,0.004128854592456221,45.98161197553686,35782553.25546819
293,SBIRS GEO-2 (USA 241),0.07244796425331272,20.741790514945812,35779664.56561944
294,EUTELSAT 117 WEST A,0.007632924253816729,-116.81349521863048,35786516.51955712
295,ANIK G1,-0.024108555790079592,-107.33183910226171,35786651.859561734
296,CHINASAT 11 (ZX 11),-0.01943498502670433,97.91752098023899,35792486.97797863
297,EUTELSAT 7B,0.03638742299129695,7.031416202509271,35791353.894798025
298,WGS F5 (USA 243),0.013002876216996478,-52.52083838895837,35787502.738980085
299,SES-6,0.010201784472678938,-40.513101816049364,35775832.701382704
300,IRNSS-1A,25.29521645550056,59.38269824426365,35738022.00525063
301,MUOS-2,-1.1780872010348873,-176.7273865768911,36003958.3340695
302,ALPHASAT,0.49122748437030844,24.878629816603983,35777235.20435799
303,INSAT-3D,-0.034378408927989434,82.10248145191092,35786148.83189529
304,WGS F6 (USA 244),-0.027714388853073087,-135.20941063977818,35787121.41447931
305,ES'HAIL 1,0.003493454157833716,25.53342913507575,35780853.42526864
306,GSAT-7,0.05057626777785367,73.98963663605457,35760797.10189773
307,AMOS-4,-0.00294749768516045,65.0580909792218,35788751.70066421
308,AEHF-3 (USA 246),-0.9415424253445188,146.3590128775895,35541958.47512118
309,ASTRA 2E,-0.002664353957146615,28.477065715015797,35781786.131547116
310,FM-6,0.021603667314187655,-116.16789857518009,35783711.79912408
311,RADUGA-1M 3,1.419974641872445,34.96089044022578,35788302.041774
312,SES-8,-0.011717196895393819,95.018127799346,35794427.34142847
313,INMARSAT 5-F1,0.025824579930146217,62.569290133277825,35785461.34675543
314,TKSAT-1 (TUPAC KATARI),-0.006484660083085608,-87.20827616920873,35780251.16009496
315,EXPRESS-AM5,-0.015791038906164803,140.00002109655506,35786918.179330446
316,GSAT-14,0.016968975841784417,73.99915634750506,35773485.9807481
317,THAICOM 6,0.04686552609925542,78.5502182712175,35789034.57860092
318,TDRS 12,2.81033097896176,-40.80857836244772,35769596.323423386
319,ABS-2,-0.014601288501045842,74.92957804492015,35794553.97611316
320,ATHENA-FIDUS,0.03839668939973917,37.80632469402686,35785019.17170912
321,TURKSAT 4A,-0.03301079743943823,41.98912152456536,35775464.373710506
322,EXPRESS-AT1,0.004518364635277917,56.015183375504876,35783294.77685571
323,EXPRESS-AT2,0.0036483100260888217,139.81784862644795,35784657.18542802
324,AMAZONAS 4A,0.01285502903633765,-73.98945189903489,35779121.531273395
325,ASTRA 5B,0.04380791207101115,31.523487498129843,35776145.63453535
326,IRNSS-1B,-23.0708666439759,58.994076741993055,35835903.87975753
327,LUCH 5V,-0.18763798802331394,94.77140249946942,35796996.05843994
328,KAZSAT-3,0.009520960396480175,58.49330145278761,35783520.11964829
329,EUTELSAT 3B,0.03984808159267528,3.0945854321761352,35765861.80591029
330,USA 254,-0.11766780368903888,173.05159726211323,35825975.26138991
331,ASIASAT 8 (AMOS-7),-0.02943712825571087,-3.8809318839333753,35779760.483717084
332,ASIASAT 6,-0.017734691318234904,119.90644282166836,35788969.439481705
333,OPTUS 10,-0.007917850643121003,156.01727153731227,35803104.910617866
334,MEASAT-3B,-0.03239880254549302,91.53568250212575,35786904.32064284
335,LUCH (OLYMP),-0.021178962301809975,56.93129773085837,35787205.288258284
336,HIMAWARI-8,-0.015542335007020945,140.656539877001,35788335.324123174
337,IRNSS-1C,2.33651133540463,83.24952626155057,35774310.752339534
338,INTELSAT 30 (IS-30),0.0027706700501260325,-95.0512499559427,35778658.39581328
339,ARSAT 1,0.019543348595660454,-71.82148721702559,35782318.748604834
340,EXPRESS-AM6,0.002117639904134447,53.02440840899062,35781753.35991779
341,GSAT-16,-0.060659843381283204,55.1556630291345,35801275.846672036
342,DIRECTV 14,-0.028701993654355332,-99.20590781458445,35784157.971139036
343,YAMAL 401,-0.008489063276554354,89.85089621884607,35785840.60973783
344,ASTRA 2G,0.010290837138750668,28.231228635076132,35789069.39636917
345,FENGYUN 2G,0.2212015638573948,99.6905349078279,35787013.53672992
346,MUOS-3,1.487734516060545,-15.837296059880002,35576762.10008612
347,INMARSAT 5-F2,0.02478140741006314,-55.00362689107949,35788769.560718626
348,ABS-3A,0.03726800030331883,-2.992197640340415,35789766.48408286
349,EUTELSAT 115 WEST B,0.0017913355058202338,-114.92526604143518,35786151.91784596
350,EXPRESS-AM7,0.032578668553149316,40.11604689346935,35780544.34078221
351,IRNSS-1D,1.254461191338439,111.53095139795819,35873940.88685458
352,BEIDOU 17,-44.16057187671987,106.99820973185365,35863831.16305858
353,THOR 7,0.01992045179831751,-0.6490253804080264,35776396.43131462
354,TURKMENALEM52E/MONACOSAT,0.02791631834837531,52.033354684956066,35783129.3917445
355,DIRECTV 15,-0.016839704189217944,-102.82987997753825,35785537.82597972
356,SKY MEXICO-1,0.0156101271957954,-78.78892405217677,35782150.20501706
357,METEOSAT-11 (MSG-4),0.12095910203537612,-0.3191761736671446,35783517.88480019
358,STAR ONE C4,0.027906515023694345,-70.01969271225406,35778436.596241206
359,WGS F7 (USA 263),-0.03741740251849789,174.9994234264916,35787341.727792405
360,INTELSAT 34 (IS-34),0.01764539927642623,-55.49581963481464,35786939.71851617
361,EUTELSAT 8 WEST B,0.038676340970607306,-7.957996419655797,35772034.01716654
362,GSAT-6,-0.0667031503890904,82.60986384253829,35788075.90602931
363,INMARSAT 5-F3,-0.04769207409332054,179.58331102426314,35785615.09803909
364,MUOS-4,-2.2751596740707174,74.50614324083439,35898771.71938879
365,TJS-1,-0.021400177130984566,154.9252472830632,35790400.41629497
366,EXPRESS-AM8,0.013846700360472025,-13.995926459444373,35785710.866892554
367,BEIDOU 20,-16.827714268935324,104.6821723834412,35957107.6183134
368,SKY MUSTER 1 (NBN1A),-0.02450433200789413,140.25254559581492,35793517.2543973
369,ARSAT 2,0.02156164991547355,-81.01686677795423,35780948.71954534
370,MORELOS 3,4.073217039741089,-113.18094401222713,35789399.22050433
371,APSTAR 9,-0.001004216301019549,141.98015912068823,35796134.58993378
372,TURKSAT 4B,0.026204377492210745,50.00440131299774,35781952.306041546
373,CHINASAT 2C (ZX 2C),-0.019662349201363442,103.43692923128786,35793504.14509664
374,GSAT-15,-0.04904993216415801,93.49908714674464,35797989.65862517
375,BADR-7 (ARABSAT-6B),-0.03369722953723908,25.9902657417116,35763973.54884594
376,LAOSAT 1,-0.0005591600047843506,128.4698002847762,35790844.33822389
377,TELSTAR 12V,0.04234833895553371,-15.01803214970175,35779187.39721348
378,CHINASAT 1C (ZX 1C),1.142685011603063,81.43896502364127,35792965.57213983
379,ELEKTRO-L 2,1.8124159605173158,-14.592197785337289,35774856.51553553
380,COSMOS 2513,0.047004148977725875,80.27771811406663,35786589.579364866
381,EXPRESS-AMU1,0.03332849319495766,36.111223127105646,35778348.75390273
382,GAOFEN 4,-0.005571254860408187,105.69960514980879,35785135.546932355
383,BELINTERSAT-1,-0.00395055786679715,51.50875314616479,35787197.4381754
384,IRNSS-1E,-1.6479756505179053,111.37473362651126,35704947.499466434
385,EUTELSAT 9B,0.0723504369631599,8.94813210520557,35781592.7597032
386,SES-9,-0.01675945536352767,108.2972683714713,35793768.88342546
387,EUTELSAT 65 WEST A,0.0554716453904602,-65.22257613861434,35780380.42726801
388,IRNSS-1F,0.3603979491415575,32.59845684452992,35861257.53726067
389,BEIDOU IGSO-6,-16.3867552050471,85.69517445404007,35635167.2078036
390,IRNSS-1G,1.8612239952836105,129.47445367624078,35805727.06789375
391,JCSAT-2B,-0.03530902127600682,153.99869716358097,35794427.70939097
392,THAICOM 8,0.03251663618546202,78.58167037511627,35797713.328154325
393,INTELSAT 31 (IS-31),-0.002414719127311255,-95.05234278178598,35791484.37072266
394,BEIDOU-2 G7,-0.7262725822639442,110.49100978500546,35821786.54054479
395,ABS-2A (MONGOLSAT-1),0.012658484876987735,74.6890367951523,35793538.51145669
396,EUTELSAT 117 WEST B,0.0011249933506550045,-117.02478308632956,35785303.69681408
397,BRISAT,-0.029814575913974843,150.50853092224054,35794624.02880116
398,ECHOSTAR 18,0.013654365998368528,-61.387562324691096,35781975.87798589
399,MUOS-5,5.94413766800016,-106.97930157419222,36150779.24855546
400,TIANTONG-1 1,-2.4804826307243757,101.36958681174764,35796686.46034799
401,JCSAT-16,-0.045125928208667676,135.10528790768686,35746433.69928946
402,USA 271,-0.10323563525750273,119.72571702512035,35839011.46902877
403,INTELSAT 36 (IS-36),-0.0020209180784017287,68.46812452953698,35795579.57075932
404,INTELSAT 33E (IS-33E),-0.0056983683944128675,60.00013542563611,35784531.439147525
405,INSAT-3DR,0.0833247180651463,73.93362429042419,35749261.89011909
406,GSAT-18,0.06384351388149041,73.99425786087849,35795357.7321182
407,SKY MUSTER 2 (NBN1B),0.016242571202781633,144.78599023189318,35792327.18200514
408,HIMAWARI-9,-0.027920723330933237,140.73343290644365,35787674.215813324
409,SHIJIAN-17 (SJ-17),-0.13971519631747573,117.5358985628199,35798218.75804292
410,GOES 16,-0.02523992824961094,-75.24922767645225,35786115.701375835
411,TIANLIAN 1-04,0.15829110257562193,176.63028068763816,35856472.89658574
412,WGS F8 (USA 272),-0.035863999774386444,149.80591991582267,35787576.23394472
413,FENGYUN 4A,-0.008753243386479185,104.54695990448886,35794110.50608184
414,ECHOSTAR 19,-0.012791159734817,-97.11467238303035,35785121.86938676
415,JCSAT-15,-0.007537858193988525,110.07525658480772,35789951.69938078
416,STAR ONE D1,0.013080048926798326,-84.01783400853813,35780676.6500445
417,TJS-2,-0.3483153803297502,66.51875408431476,35771325.82069842
418,SBIRS GEO-4 (USA 273),2.182165954830333,-159.45255389252134,35792257.49083163
419,HISPASAT 36W-1,0.003698941937001711,-35.986674953710825,35781623.26567126
420,TELKOM 3S,-0.009340381661610083,118.02079412590093,35794028.346215904
421,INTELSAT 32E (IS-32E),0.03264182614887269,-43.16892917936534,35788873.48868103
422,ECHOSTAR 23,0.0124440378461192,-67.94348040210583,35781737.46805809
423,WGS F9 (USA 275),0.051648609031754694,-11.987349602103345,35785238.105046734
424,SES-10,0.026699165541128046,-66.90413608349306,35776656.730634555
425,CHINASAT 16 (SJ-13),-0.020856688104463356,110.58215824177402,35771127.46795849
426,KOREASAT 7,-0.0209835155336197,115.90799526390563,35788524.73120232
427,SGDC,0.012100224539109482,-74.86724748632325,35779707.40040749
428,GSAT-9,-0.0389519545618918,97.30859980103453,35792568.104675226
429,INMARSAT 5-F4,0.02576610639038581,56.48653231786644,35784667.82996758
430,SES-15,0.0009125043358065016,-129.15708707337754,35787624.95831325
431,QZS-2 (MICHIBIKI-2),25.767188850325997,139.48970042923753,37717107.2862938
432,VIASAT-2,0.001857445612659306,-69.90766251113487,35787101.87371687
433,EUTELSAT 172B,-0.009417786727991076,172.0007100553157,35785751.93846884
434,GSAT-19,-0.027045764812496893,47.9421599202574,35797492.319737494
435,ECHOSTAR 21,-2.9926917058101576,10.202377983400954,35779928.49997583
436,CHINASAT 9A (ZX 9A),-0.3484909368436511,167.19013005673182,35923156.32868345
437,BULGARIASAT-1,0.04718614500239863,1.908232958552786,35777434.38946933
438,HELLAS-SAT 3,0.019204147291173354,39.01241024141284,35793598.3122779
439,GSAT-17,0.04188975771551732,93.50914955251588,35775704.60217736
440,INTELSAT 35E (IS-35E),0.014012926675429551,-34.48825967575861,35780862.84484724
441,COSMOS 2520,0.06477756516584786,45.08147251784447,35784155.86063593
442,TDRS 13,0.1362009823729382,-11.327284139944945,35751213.37063197
443,QZS-3 (MICHIBIKI-3),0.041286616011205673,127.07068694604973,35787009.96997947
444,AMAZONAS 5,0.023348261721908677,-61.016867589345004,35780189.77166229
445,ASIASAT 9,-0.023800852103689898,122.09186749367761,35796539.32221441
446,INTELSAT 37E (IS-37E),-0.017843548419138284,-18.017766677181942,35774525.40485513
447,BSAT-4A,-0.03979091401975151,109.84058345645177,35796364.86683821
448,QZS-4 (MICHIBIKI-4),-35.87015911208251,148.20823527297745,32946511.264743242
449,SES-11 (ECHOSTAR 105),-0.015407771215492146,-104.97593922330611,35781223.35319915
450,KOREASAT 5A,-0.0027631831846969086,113.1534280264922,35790390.99966318
451,ALCOMSAT 1,-0.041387871630364274,-24.797383283903198,35777255.39655937
452,SBIRS GEO-3 (USA 282),-1.241686735326882,139.03866088603667,35795537.50248031
453,AL YAH 3,0.009816156016208985,-20.106346662045155,35778447.905923955
454,SES-14,0.030879880510001716,-47.51043955159085,35783057.83776613
455,GOES 17,0.035681356086233115,-137.20791678501186,35787580.181123786
456,HISPASAT 30W-6,0.05675109177855418,-29.964927407757017,35768652.51451061
457,SUPERBIRD 8,-0.02533930650366677,161.9843271326611,35789431.321280055
458,HYLAS 4,0.010813791902346345,-33.523143187452774,35771112.225666665
459,IRNSS-1I,26.598743449527383,57.92121592352245,35756052.86435504
460,USA 283,-0.027202409913648955,134.09536226506003,35786482.93059582
461,COSMOS 2526,-0.011442866606810305,128.0658329789371,35787170.76931373
462,APSTAR 6C,-0.016129260180692467,133.98952131117477,35793239.65877486
463,BANGABANDHUSAT-1,-0.010603603724918555,119.11032883236673,35792583.89996459
464,SES-12,-0.00893743377112083,94.98777221411076,35781546.3487146
465,FENGYUN 2H,0.2740262413913656,79.34790803800236,35788322.741119824
466,BEIDOU IGSO-7,54.88108180613624,114.15309422034684,35904262.281516716
467,TELSTAR 19V,-0.0005777913986184409,-63.04423475675598,35778247.039845504
468,TELKOM 4 (MERAH PUTIH),-0.0015051326101037247,107.99769820923608,35788796.77564992
469,TELSTAR 18V (APSTAR 5C),-0.027911474658113257,137.9941981330244,35794468.68200849
470,AZERSPACE 2 (IS-38),0.032642654954620175,45.13556387739568,35783689.67893421
471,HORIZONS 3E,0.0032570052315660045,168.9824465200484,35785685.75338138
472,AEHF-4 (USA 288),2.5901263096201457,-150.16303557815252,35795922.898997344
473,BEIDOU-3 G1,0.957997081153124,139.97853542863774,35783450.945594706
474,GSAT-29,0.057615174202833956,55.07057507619255,35786554.22110425
475,ES'HAIL 2,0.0397090984066475,25.77095012957767,35778502.917129666
476,GEO-KOMPSAT-2A,0.005082871736838944,128.27928519269588,35782961.475774616
477,GSAT-11,0.0008081554146702109,74.08228400943617,35804019.05202604
478,GSAT-7A,-0.052497810739723164,62.78890053709985,35788676.51923726
479,COSMOS 2533,0.032164296782006795,69.98178603088549,35786565.4633649
480,TJS-3,0.15614569207142323,87.75538532401296,35808452.29440106
481,TJS-3 AKM,-0.13111294337886045,59.01964259634668,35768270.48514072
482,CHINASAT 2D (ZX 2D),0.006457991160666556,129.974673962368,35790273.64961305
483,HELLAS-SAT 4 & SGS-1,0.08418291428933611,39.07068387849634,35770784.57202731
484,GSAT-31,-0.010431655502481383,47.86609644751062,35779400.55681578
485,NUSANTARA SATU,-0.03242957354854294,146.01551916033088,35794134.64682864
486,CHINASAT 6C (ZX 6C),0.0008341986549165066,130.01839178939676,35778453.50520832
487,WGS 10 (USA 291),0.02355780386067712,60.32039183430932,35784358.26221966
488,TIANLIAN 2-01,-0.6644700883935456,80.42467281164502,35803306.57307228
489,ARABSAT-6A,-0.02095782112544388,30.419779493834476,35766896.45627503
490,BEIDOU-3 IGSO-1,-31.33696561071123,99.37058630654278,35723459.23101447
491,BEIDOU-2 G8,-0.25344681481746245,144.4461385881382,35801348.82687311
492,YAMAL 601,0.040059113099599836,49.067541605415755,35782682.80211376
493,AT&T T-16,0.00300129048890217,-100.80446719718597,35785922.523741595
494,EUTELSAT 7C,0.00481758244977153,7.049229843532845,35777866.50835195
495,BEIDOU-3 IGSO-2,54.91802733749953,110.27400633319056,35810147.95232302
496,COSMOS 2539,0.06256214536358094,12.016954693352911,35784267.77766467
497,EDRS-C,-0.06704172520897435,31.18080777991018,35787016.75354189
498,INTELSAT 39 (IS-39),0.00992424631611416,61.930358595807355,35788744.705284946
499,AMOS-17,0.008763231118933897,16.992703937396296,35778949.602861196
500,AEHF-5 (USA 292),-5.091171800055791,54.54854508237437,35786266.993597314
501,EUTELSAT 5 WEST B,0.023164387916057568,-4.968950993614562,35762030.512296334
502,MEV-1,-0.01669855762852385,-27.51634297899494,35783049.43205249
503,TJS-4,-0.026309505922446852,83.46848903204372,35790618.73369761
504,BEIDOU-3 IGSO-3,-26.868435276265984,119.87703954149234,35849633.81296619
505,TIBA-1,0.002803850700990208,35.49255759518342,35780807.22340751
506,INMARSAT GX5,0.02497550393043936,11.012404178559056,35775083.505421065
507,JCSAT-18 (KACIFIC 1),-0.013679228848228076,149.9862016178791,35789286.24587262
508,ELEKTRO-L 3,0.02358295845921194,76.10343719733284,35781875.008960105
509,SHIJIAN-20 (SJ-20),0.15647737539381626,87.81190930391215,35807223.66830717
510,TJS-5,-0.10827320550011674,107.53401329913828,35797104.768504925
511,GSAT-30,0.029145793455193796,83.0245280539671,35803786.3008071
512,EUTELSAT KONNECT,0.05932072126445213,7.171012201691765,35780228.65685738
513,JCSAT-17,-4.753306577684078,136.1795375640786,35803887.4487946
514,GEO-KOMPSAT-2B,-0.008508653413742968,128.26856120951348,35793136.31955333
515,BEIDOU-3 G2,-2.3549723609596924,80.06361258906422,35796070.221315704
516,AEHF-6 (USA 298),3.013275546434389,171.22937026576443,35896056.049092606
517,BEIDOU-3 G3,-0.9975137029267505,110.53323214237943,35757708.738510914
518,APSTAR 6D,-0.0195538807102648,133.958775699978,35797710.7074324
519,KOREASAT 116,-0.020898025618597216,116.20819767791198,35787016.40538337
520,EXPRESS 103,-0.006763445082419621,96.48327837190703,35785544.750886954
521,EXPRESS 80,0.0029034081100673082,79.95818242939173,35784247.81305859
522,BSAT-4B,0.037389437494550475,109.85205390831113,35796986.24151254
523,MEV-2,-0.019645727946540875,-0.9710191086785606,35781675.62527315
524,GALAXY 30 (G-30),-0.029926506242311288,-125.00029849008008,35788825.04916657
525,GAOFEN 13,0.020407039100326416,117.77507202261049,35788544.59944726
526,TIANTONG-1 2,-1.0164407219205742,124.95292614663842,35801187.59085462
527,LUCAS (JDRS-1),0.021576775497492914,90.78540385170848,35793531.92601327
528,SXM-7,-0.02317470335153985,-115.32086030102,35780763.186321944
529,CMS-01,0.0530810644151687,83.0399317311895,35767727.90334073
530,TURKSAT 5A,0.03748855928186539,30.89353710614613,35787133.773897156
531,TIANTONG-1 3,-4.693135369698126,81.6393711647285,35791073.5432999
532,TJS-6,0.4895774163793023,178.51395009250754,35789734.91374838
533,SBIRS GEO-5 (USA 315),7.601452057507697,-119.19824184640336,35706276.03407208
534,FENGYUN 4B,0.02550193379132714,123.6975290781694,35784895.48451384
535,SXM-8,-0.05579120413757324,-120.48992554629366,35786528.9573685
536,TIANLIAN 1-05,-2.6744923966286116,10.834340208919338,35780276.32385777
