,Name,Latitude,Longitude,Elevation
0,TDRS 3,12.005556466748342,-48.0213096058976,35916325.27321165
1,FLTSATCOM 8 (USA 46),-10.255609171091661,71.24792653066073,35803996.613516286
2,SKYNET 4C,-3.4057941899471755,33.407579937432594,35779104.10573194
3,TDRS 5,-2.9177019711131935,-167.37624307085653,35693756.84019403
4,TDRS 6,13.516188910006822,-45.49652620873181,35747231.54724994
5,UFO 2 (USA 95),0.23467826420716364,28.742105969741655,35774451.77219908
6,USA 99 (MILSTAR-1 1),6.557557493206314,-90.78076417834508,35777311.47328418
7,ASTRA 1D,7.424005939672893,-73.42688256038971,35774274.78083263
8,USA 107 (DSP 17),12.364553842982055,-97.35054924959447,35781024.29479919
9,UFO 4 (USA 108),-6.809466385586146,172.7349404790131,35809789.697054386
10,AMSC 1,5.289740497170358,-108.01177647868934,35774302.22417076
11,TDRS 7,-12.914048639518493,83.92461980117255,35904689.43299845
12,USA 113,-10.169384094878424,103.20521236838253,35792581.91290869
13,USA 115 (MILSTAR-1 2),5.899728422896136,-120.64735631377901,35788303.06285629
14,INMARSAT 3-F1,1.351220080932906,-91.69331849823514,35845191.96279849
15,INMARSAT 3-F2,-5.173063946910262,148.77988502516112,35898059.291149355
16,AMC-1 (GE-1),-3.378047490122432,-130.8154482282888,35788258.841872685
17,INMARSAT 3-F3,5.0806376809932985,29.302432544057222,35853735.49910723
18,INTELSAT 26 (IS-26),-1.4298701651744594,66.05482440165072,35798656.821046256
19,GALAXY 25 (G-25),2.766105080722822,32.94129030054511,35786830.29024498
20,INTELSAT 5 (IS-5),-3.9735183272866164,-136.86925028839013,35785091.258294515
21,AMC-3 (GE-3),0.5709264198059008,-72.04548260583312,35777902.05141137
22,NSS-5,3.183812600620397,50.71305216595534,35783228.740143985
23,USA 134,3.1266509735680144,-112.72190358102203,35770841.935949355
24,ASTRA 1G,5.147485021958654,19.569556172602116,35775434.30818332
25,INMARSAT 3-F5,3.754155129997163,-54.14006368665459,35767846.85470108
26,UFO 8 (USA 138),-7.588831453170981,171.94347789686591,35803309.05367537
27,ASTRA 2A,2.578872352732157,27.986538660797503,35783100.56197704
28,JCSAT-4A,-4.098793202770201,135.9450025647511,35783052.66094164
29,SKYNET 4E,6.631939360043194,-0.6755510857629184,35777040.02576498
30,ASIASAT 3S,-4.999569258492828,147.74560080947887,35804059.54801541
31,NIMIQ 1,-0.5019251282202948,-86.57991480258191,35770894.047344714
32,ABS-7,1.915036209646924,33.402125927753055,35781364.2813823
33,ABS-6,-0.008957402542668382,158.99330393962902,35797298.745707184
34,AMC-4 (GE-4),-0.6828627630664953,-134.93270803578673,35789683.05316398
35,UFO 10 (USA 146),8.036539280529448,-22.727615716958113,35762026.87859289
36,GALAXY 11 (G-11),-0.8152168617080257,-93.07218382601958,35787165.16612355
37,USA 148,-7.913183142694269,-179.3563217519533,35792278.26087606
38,ASIASTAR,-1.1702982658016496,104.99856044547846,35798805.218906164
39,USA 149 (DSP 20),-5.184510426950122,-164.98004260175378,35796127.13185411
40,EUTELSAT 80A,4.161710854960599,-12.589219719415462,35776985.40617608
41,TDRS 8,-4.470814729335694,88.40374337625363,35850245.02917934
42,INTELSAT 9 (IS-9),4.998493703512158,-50.185834640855155,35775876.82104397
43,NSS-11 (AAP-1),-0.0034557229594693335,175.98928988749418,35790955.74234167
44,USA 153,-8.05098901095973,134.1256130049112,35792278.27183435
45,AMC-6 (GE-6),-0.0025902353710829827,-139.03537478572522,35792568.48819496
46,INTELSAT 12 (IS-12),2.2660523309894565,64.34795105693334,35802798.784155875
47,INTELSAT 1R (IS-1R),-3.1123423086227193,157.03529787500312,35784899.65804872
48,ANIK F1,-0.44358869218523544,-109.32051142766709,35764832.01876808
49,ASTRA 2D,2.499978498891804,57.38285741842641,35784965.76941846
50,AMC-8 (GE-8),-1.5016131390693301,-135.02268757020477,35789306.32346515
51,USA 157 (MILSTAR-2 2),1.708318650148447,-124.3559430178162,35790427.26987119
52,EUTELSAT 133 WEST A,-2.4385998215069526,-132.85718594070755,35789652.44073874
53,INTELSAT 10 (IS-10),-4.835194422863177,177.79742040763853,35795632.14741414
54,INTELSAT 901 (IS-901),-0.017703188213549714,-27.517427395654156,35783058.7562231
55,ASTRA 2C,1.2723388956557604,-61.476515263271644,35839444.589146726
56,USA 159 (DSP 21),11.127344207048786,-49.32755639255835,35781239.2806281
57,INTELSAT 902 (IS-902),0.5762996930247068,-50.12402693233974,35774449.81067459
58,USA 164 (MILSTAR-2 3),4.3448350093600565,19.314416968871612,35782951.934256405
59,ECHOSTAR 7,0.02645996063852504,-118.80004144513738,35784805.133252844
60,INTELSAT 904 (IS-904),1.7274745390444917,-29.519273168218618,35772618.49362231
61,TDRS 9,5.053698117952046,-62.345118104039635,35810024.382583894
62,ASTRA 3A,1.7408851790892184,-86.95386246214446,35784818.08947753
63,NSS-7,4.847833730590642,-20.075285703134313,35775708.73579402
64,DIRECTV 5 (TEMPO 1),-0.23746436027412296,-110.15887775355394,35784631.29546029
65,INTELSAT 905 (IS-905),1.7191351749439299,-24.503603574895692,35775367.04398764
66,GALAXY 3C (G-3C),0.006822388841771046,-95.02934793462751,35787294.89104274
67,EUTELSAT 5 WEST A,1.4188436600157517,-4.980135225071209,35767887.01762954
68,METEOSAT-8 (MSG-1),3.4915495035343103,41.5788493302557,35785101.26135183
69,INTELSAT 906 (IS-906),0.9449011692354908,64.19887136731124,35784784.12264321
70,HISPASAT 30W-4,-1.9549001445514378,-143.0972418620888,35793880.800159305
71,TDRS 10,-6.6052765135643465,-170.89605961479887,35758324.145040706
72,NSS-6,-0.8176057165778127,-169.55395619041707,35797743.81230526
73,NIMIQ 2,0.032822884519585406,89.55865768541211,35830356.67597724
74,USA 167,-3.005490209902055,-130.09454492078245,35778312.54289411
75,USA 169 (MILSTAR-2 4),-9.659360776895412,152.18936100242414,35797824.93134172
76,GALAXY 12 (G-12),-2.0436126260227816,-128.9859393829894,35788103.912112296
77,ASIASAT 4,0.1881466726254293,38.24428164659167,35781551.0166375
78,HELLAS-SAT 2,-1.0050724219654676,-95.24459646057906,35779218.6811569
79,THURAYA-2,0.7680120895825138,44.11241780315654,35787640.94193621
80,OPTUS C1,-1.8336306314722817,155.6729102031729,35811468.570440754
81,GALAXY 23 (G-23),-0.01898266715596437,-121.00635568661806,35785922.55483147
82,USA 170,5.737672163660966,-42.80056106678474,35767836.97016281
83,GALAXY 13 (HORIZONS 1),-0.03374748182895535,-127.01316502349972,35785512.7204879
84,YAMAL 202,-1.5338428730195703,163.4320746185398,35814229.91734827
85,UFO 11 (USA 174),-2.217096486217381,74.5398654188932,35805115.091019176
86,USA 176 (DSP 22),-5.318140631455263,87.02335670326606,35787276.01705538
87,ABS-4 (MOBISAT-1),1.1558082285824225,61.06578927364229,35785398.51493448
88,EUTELSAT 7A,-1.2299049499194215,-139.26694411219924,35793629.974678226
89,AMC-11 (GE-11),0.03651774369405116,-131.01367138610922,35787341.79158092
90,INTELSAT 10-02,-0.022223430791958793,-1.0080722962540107,35783432.24611366
91,ANIK F2,-0.015025029308182569,-111.06842644556863,35791323.0141031
92,AMC-15,0.012728823347041724,-105.08531382279524,35784067.466570385
93,AMC-16,0.0008840426447615627,-95.88499005930282,35959611.99716974
94,NSS-10 (AMC-12),1.162561375785637,-37.482609822587996,35774354.06892589
95,XTAR-EUR,0.03628218641356164,29.012283104330816,35780996.34445001
96,XM-3 (RHYTHM),0.0008882699530321204,-85.11427685938014,35782759.74824191
97,INMARSAT 4-F1,-3.399360322316929,143.51736263846524,35797866.984088786
98,DIRECTV 8,-0.00043280687054897567,-119.13254437830184,35788434.62345201
99,GALAXY 28 (G-28),0.010338820727704786,-89.00831450717186,35784192.0966941
100,EXPRESS-AM3,2.776899471186148,22.99323986185195,35780931.39358312
101,THAICOM 4,-0.021132286924083647,119.49505533169675,35794954.07265316
102,GALAXY 14 (G-14),0.4850178861629025,23.612252276095333,35711900.90128972
103,ANIK F1R,0.009046294854540532,-107.32335539683618,35778066.93616466
104,GALAXY 15 (G-15),-0.00451967408760376,-133.02269281093655,35788510.467827454
105,SYRACUSE 3A,0.31785155427990736,47.026614290455605,35783920.40239707
106,INMARSAT 4-F2,-0.7132629104081859,63.89917597231085,35784471.38062538
107,TELKOM 2,-0.08051820736127897,-92.12009465544024,36107722.44529416
108,SPACEWAY 2,-1.0833143417335982,-138.88431300791,35786980.51661477
109,METEOSAT-9 (MSG-2),5.280196519812162,3.3715848396711157,35782180.87924931
110,EUTELSAT 174A,-0.056258383680097036,173.9768027552716,35809564.140892155
111,ECHOSTAR 10,0.0053910065571528085,-110.22559106549217,35786325.700156316
112,SPAINSAT,-0.02604410779931806,-30.01073174917348,35771266.63209988
113,EUTELSAT HOTBIRD 13E,0.05233872669382092,13.005623437046458,35762460.79756245
114,JCSAT-5A,-0.011804109925443493,132.06534765485512,35792911.7416067
115,ASTRA 1KR,-0.03693984409680664,19.18673059838251,35771820.02967655
116,EWS-G1 (GOES 13),0.03291738023872907,61.32311733201544,35765236.46346717
117,EUTELSAT 113 WEST A,-0.032673357748999605,-113.02999931334902,35784840.205093354
118,GALAXY 16 (G-16),-0.02139680272138111,-99.02751522428896,35782229.53577407
119,EUTELSAT HOTBIRD 13B,0.05005063808594505,12.987584346513795,35778221.79960848
120,JCSAT-3A,-0.011672237155256416,128.0057534025343,35794475.566093415
121,SYRACUSE 3B,0.026864242650537534,-5.175688736509756,35767614.657929406
122,KOREASAT 5 (MUGUNGWHA 5),0.007262744998601756,113.07366124392217,35788229.60513494
123,DIRECTV 9S,-0.02671576009274555,-101.23496557451018,35782794.64507242
124,OPTUS D1,-0.009446501910121025,159.99181506473548,35800668.576068655
125,XM-4 (BLUES),0.027051055073807236,-115.22658755645675,35786755.54563103
126,BADR-4,0.0005829595121589562,26.01983053717749,35776512.94491959
127,WILDBLUE-1,-0.0012112153511165972,-111.19652028635332,35784705.696294956
128,AMC-18,0.022619830227792063,-83.03367095890964,35780827.72172623
129,MEASAT-3,0.12391123180009324,77.93044127528283,35835832.227706775
130,INSAT-4B,0.6005238177759388,85.58243821688971,35776925.84631189
131,SKYNET 5A,0.3198884077703986,95.23387593389243,35794752.74134102
132,ANIK F3,-0.014302729857376392,-118.73756287928772,35783960.159232974
133,ASTRA 1L,-0.04160497948557668,19.189910063927574,35783075.15618457
134,GALAXY 17 (G-17),0.0036480724745538073,-91.02296131908714,35780832.62448895
135,ZHONGXING-6B,-0.0032675684489164576,115.54248902565541,35799367.21167431
136,DIRECTV 10,0.0030876803560469447,-102.78832386511024,35787347.098968975
137,SPACEWAY 3,-0.002728945278269149,-94.96487004760141,35786791.91129005
138,BSAT-3A,0.021105841492148884,109.88118303625018,35784992.93397337
139,OPTUS D2,-0.007615437437696862,151.99887033847475,35801283.41758046
140,INTELSAT 11 (IS-11),0.005195265678127067,-42.985075222048785,35779639.777966715
141,WGS F1 (USA 195),0.046065403164199145,6.003772198592346,35780357.94596836
142,STAR ONE C1,0.011199993646479589,-65.03466384597392,35779695.29692645
143,SKYNET 5B,0.7462489122309841,25.144932640769483,35775471.56581564
144,ASTRA 4A (SIRIUS 4),-0.014565487360909596,4.824042683756646,35777148.31086242
145,HORIZONS 2,-0.006576682922093278,84.87735428389269,35791684.59761013
146,THURAYA-3,-3.4799672665168004,98.4696991761503,35803090.64680556
147,EXPRESS-AM33,0.24854270841256487,-5.747494875476874,35829216.665384114
148,THOR 5,0.016995015865802352,-0.7466841351553778,35777292.81267055
149,AMC-14,13.90445694062844,20.478311403550467,35887363.776604034
150,DIRECTV 11,-0.008959721876269635,-99.17992415612181,35786691.12725519
151,ICO G1,2.8752147069191363,-92.94456063029025,35783051.57735638
152,VINASAT-1,-0.01448218135159343,131.94962281369882,35791924.32593668
153,STAR ONE C2,-5.3185653843148616e-05,-70.0498584819823,35783526.67599626
154,TIANLIAN 1-01,0.6894422145753463,79.75012156512912,35809917.17256182
155,AMOS-3,0.0483073218246217,-4.0886551130371425,35777691.152504034
156,GALAXY 18 (G-18),-0.029846887170370484,-123.03837129091804,35788564.09630473
157,CHINASAT 9 (ZX 9),0.017434962495072637,92.24997976385413,35793846.69598825
158,SKYNET 5C,0.05560907882072582,-17.83381557711809,35769173.03389488
159,TURKSAT 3A,0.03910744844936917,42.0318884062781,35785445.81758229
160,INTELSAT 25 (IS-25),0.014807113213453009,-31.49576518562101,35775453.0769245
161,BADR-6,0.06227133137799166,26.004323773662044,35779211.05326512
162,ECHOSTAR 11,0.007480224210276769,-110.03023538719663,35782449.15701518
163,SUPERBIRD-C2,-0.017432081340830092,143.95366395869746,35792004.42265619
164,AMC-21,0.025955578156027205,-124.92846238797647,35787601.75535606
165,INMARSAT 4-F3,2.4106230127537494,-98.06505102570783,35782166.25941342
166,NIMIQ 4,0.010871805464024185,-82.00675093164799,35778296.430025674
167,GALAXY 19 (G-19),-0.004666103643618286,-97.0424778539361,35781620.03329633
168,ASTRA 1M,0.042049111354554275,19.24721064798925,35769721.64880881
169,CIEL-2,0.0011950201821165905,-128.8855153687176,35789862.53810463
170,EUTELSAT HOTBIRD 13C,0.061055481434280676,13.02408189110184,35772513.388541974
171,EUTELSAT 48D,0.5571469363214119,-12.456374789315943,35772974.89486679
172,FENGYUN 2E,-0.22815976995899812,86.50205973656577,35798643.78435085
173,EXPRESS-AM44,0.012424822391222019,-10.996747705677265,35786736.589713104
174,NSS-9,0.021509113209404972,-176.93574853004466,35793207.02201029
175,EUTELSAT 33E,0.0365582296853129,33.18111685115771,35776417.34527754
176,TELSTAR 11N,0.028384203667211297,-37.54597978566042,35775795.616370395
177,EUTELSAT 10A,0.054603278859235445,10.050876469816693,35767875.382155895
178,WGS F2 (USA 204),0.034326318650095104,57.49768496882239,35785526.21697393
179,SES-7 (PROTOSTAR 2),-0.013036961247792451,108.23143062363548,35784707.86977358
180,MEASAT-3A,0.0037315270644785814,91.54323862809456,35782977.89030886
181,GOES 14,-0.306072325113957,-104.32119918219703,35829547.98854656
182,FM-5,0.015071449962925716,-86.13130636411812,35785039.138019495
183,TERRESTAR-1,1.0167277135882575,-111.0639193535554,35784929.85293435
184,ASIASAT 5,-0.011712801074817956,100.51433501986553,35793364.79608204
185,JCSAT-RA (JCSAT-12),0.03547612646909581,168.88998685788803,35794125.424324885
186,OPTUS D3,-0.02180135442300507,155.9902234636289,35796587.326497674
187,NIMIQ 5,0.01588276942301189,-72.7222858579385,35780247.471809745
188,AMAZONAS 2,-0.007091263104999129,-61.05419871984342,35770416.84141764
189,COMSATBW-1,0.038263893547690116,63.07829450234232,35784962.27573645
190,NSS-12,-0.005254656925746641,57.02231821241187,35783246.58065297
191,THOR 6,-0.0021964202914702643,-0.830083955280206,35780520.471239045
192,INTELSAT 14 (IS-14),0.017650991824566246,-44.988405024397736,35776479.842699975
193,EUTELSAT 36B,0.021887245938435385,35.94628604847623,35776915.653321005
194,INTELSAT 15 (IS-15),-0.006772090044397902,85.1726847631896,35788953.963423625
195,WGS F3 (USA 211),-0.07411632781203274,-121.90682931478679,35786562.866093904
196,DIRECTV 12,-0.005651109829010303,-102.71547216442987,35786925.90328473
197,BEIDOU 3,-1.8997435287295208,140.46438102846815,35811211.61039514
198,RADUGA-1M 2,-0.005864168805684295,85.02401921612739,35788557.97074121
199,SDO,-24.59191176382475,-97.92228848623995,35790911.21206834
200,INTELSAT 16 (IS-16),0.010081804194370417,-76.21849819703772,35781876.64955299
201,GOES 15,-0.2367734982276827,-127.9666641819623,35770738.45295859
202,ECHOSTAR 14,-0.011413181904681926,-118.92591662582174,35784985.21608079
203,SES-1,0.019353340740516457,-101.02768586392594,35781205.112110764
204,ASTRA 3B,0.01764354654976874,23.530100475717166,35773573.61415933
205,COMSATBW-2,0.033998634216746426,13.20317350374846,35778360.82665975
206,BADR-5,0.041287586330249246,26.015566425993605,35770604.72846269
207,COMS 1,-0.10221784597569704,128.15283899383783,35788833.980900265
208,ARABSAT-5A,0.050726432650179995,30.522318241520754,35770707.22225308
209,ECHOSTAR 15,-0.009543984360324791,-61.63994853903932,35778913.40759437
210,BEIDOU 5,53.451473227601745,119.38483649600016,36156895.493893094
211,NILESAT 201,0.010825139662451412,-6.948618060245412,35764264.60520196
212,RASCOM-QAF 1R,0.04657625159950126,2.93820228231411,35769246.79188874
213,AEHF-1 (USA 214),3.6496489552249285,3.9268767824051527,35768583.36612074
214,CHINASAT 6A (ZX 6A),0.007542402645516864,125.03993517693281,35793478.77825945
215,QZS-1 (MICHIBIKI-1),15.688197772891126,136.61925195368323,36924028.78646383
216,XM-5,-0.0033038617110001177,-85.1190099139312,35789525.51300597
217,BSAT-3B,-0.04006607325439388,109.83813933228933,35783901.92338127
218,BEIDOU 6,-0.937909063311295,160.08765381774455,35806031.807358794
219,SKYTERRA 1,1.467566093105741,-101.34145446294495,35787216.521927044
220,ZHONGXING-20A,-0.5625082313631949,126.39467924584841,35800634.661486864
221,HYLAS 1,-0.8577451388660359,158.73501330081533,35794210.94569789
222,INTELSAT 17 (IS-17),0.011420564581914601,66.0252194045365,35786470.913920596
223,BEIDOU 7,-9.990913946129917,122.15390433136159,36025393.483373754
224,EUTELSAT KA-SAT 9A,-0.06187441554360979,9.039404982460498,35769062.58295349
225,HISPASAT 30W-5,0.013433940220430714,-29.993071057418806,35761197.78710117
226,KOREASAT 6,-0.02752735109908195,116.01323523177354,35791722.26749752
227,BEIDOU 8,-36.50285619264246,99.86459355855223,35573911.372648075
228,INTELSAT NEW DAWN,0.011295709712484055,32.81679218683622,35781119.44350323
229,YAHSAT 1A,0.028275915607372738,52.49487548185527,35789104.84833039
230,SBIRS GEO-1 (USA 230),-1.2566058248994183,66.21134369667435,35787693.7477381
231,TELSTAR 14R,0.02095535339545169,-63.00330925870507,35778916.160906345
232,GSAT-8,0.025792906579630254,55.04697563104089,35778231.25490623
233,ST-2,0.008020888960751064,88.02024705621267,35785347.93710485
234,CHINASAT 10 (ZX 10),0.010547582511065532,110.5702679122277,35792083.64975006
235,TIANLIAN 1-02,-2.401179260750753,170.9878048435241,35865739.1149938
236,GSAT-12,0.543284841971128,48.07925324476858,35802119.42863307
237,SES-3,0.018954125548324416,-103.03446305770454,35781413.98058576
238,KAZSAT-2,0.02447105968550606,86.51805418625909,35782568.227907315
239,BEIDOU 9,51.4945672517886,82.36130171125794,36113981.155018486
240,ASTRA 1N,0.013347877989790318,19.222300934305505,35788730.17131765
241,BSAT-3C (JCSAT-110R),-0.0110003048721934,109.95684746945416,35786534.208008505
242,PAKSAT-1R,0.018230999255658128,38.04470744508714,35797872.53951715
243,CHINASAT 1A (ZX 1A),0.005687039224229884,129.86979940306682,35783372.16231894
244,SES-2,0.026760225510398545,-87.02721202436507,35779662.53335416
245,ARABSAT-5C,0.02090187605489755,20.01373229342579,35763000.32463939
246,EUTELSAT 7 WEST A,0.08191750221525974,-7.2913568483039555,35767631.05621935
247,QUETZSAT 1,0.016835103310062327,-77.01902823533054,35779015.328894794
248,INTELSAT 18 (IS-18),-0.029652837016600778,-179.98796643005252,35792267.72089536
249,EUTELSAT 16A,0.025204169425994856,16.031101663294066,35773027.50608054
250,VIASAT-1,-0.023193530204420405,-115.14334533686092,35786236.84789125
251,ASIASAT 7,0.008197999951358751,105.51573434742616,35792110.562325515
252,BEIDOU 10,-25.303009161362713,107.46995422650409,35906913.005531095
253,LUCH 5A,-3.0425840899174394,166.7700740777757,35803370.07819519
254,NIGCOMSAT 1R,0.00277990692590387,42.51488265277165,35788471.13848767
255,FENGYUN 2F,-0.678309307797839,111.68083721144603,35796665.749289416
256,WGS F4 (USA 233),0.01145004027824921,88.41331015732699,35784970.213617854
257,SES-4,0.022561038734163312,-21.999820414325345,35775740.969854765
258,BEIDOU 11,0.762025885783973,58.762320776919815,35815138.22053414
259,MUOS-1,1.7429375484831526,-99.64055289102859,35606653.24207877
260,INTELSAT 22 (IS-22),-0.004924490207227603,72.1355069055781,35788774.894516855
261,APSTAR 7,0.019184225561049068,76.52850122531616,35787907.63164476
262,YAHSAT 1B,0.029837687789241743,47.61071368188335,35787979.43172655
263,AEHF-2 (USA 235),1.679234582873063,-67.76829508513771,35753218.83387364
264,JCSAT-13,-0.011307177821712103,124.02162413093455,35794027.00232373
265,VINASAT-2,-0.016957458851865875,131.85319397693365,35793895.99127633
266,NIMIQ 6,0.009250655038194291,-91.12561387647278,35781332.943823665
267,CHINASAT 2A (ZX 2A),0.022346744279342138,98.25546042968881,35791694.48685393
268,INTELSAT 19 (IS-19),-0.03863061082779299,165.99478653383403,35798946.148159504
269,ECHOSTAR 17,-0.018903838581793862,-107.1261785149663,35783650.00834093
270,METEOSAT-10 (MSG-3),0.4938743529288382,9.321859559960902,35779310.5206281
271,SES-5,-0.015851185158328427,4.993952438837896,35778713.07341053
272,TIANLIAN 1-03,1.2396473544529385,20.437221403937038,35789604.16572859
273,INTELSAT 20 (IS-20),0.0220340981471832,68.5003207209917,35783132.100116275
274,HYLAS 2,-0.03456720740043863,31.07444763273248,35781431.63138885
275,INTELSAT 21 (IS-21),0.012230728003571268,-58.007402785831616,35778608.300098754
276,ASTRA 2F,-0.0699000781806877,28.185582446259822,35774871.35417458
277,GSAT-10,-0.010237289628336834,83.02368189715305,35787795.78087148
278,INTELSAT 23 (IS-23),-0.007756330449887849,-53.046417604670836,35780335.858277746
279,BEIDOU 16,0.3516964205617255,83.84262351617649,35821047.43398472
280,LUCH 5B,6.563515847340931,-16.36908228775965,35767128.569441676
281,YAMAL 300K,-0.030686106852317343,-177.0438629835958,35783014.06766869
282,STAR ONE C3,0.018663669930541377,-75.00042884488202,35780213.43333305
283,EUTELSAT 21B,0.017205563090168224,21.615339128171286,35779879.46539518
284,ECHOSTAR 16,0.015342432218174648,-61.52325348483739,35778789.23777728
285,CHINASAT 12 (ZX 12),0.012191946299101225,87.52760925286772,35790296.61680033
286,EUTELSAT 70B,-0.05950850919276135,70.54396939998125,35776934.11188843
287,YAMAL 402,0.03948382870879611,54.921252874227925,35784603.58156056
288,SKYNET 5D,-0.039074277509030135,52.80780030911229,35782356.400508
289,MEXSAT 3,-0.017657812844253083,-114.82504184842975,35788038.0672801
290,TDRS 11,0.5653433659098867,-174.44528218999136,35778382.825994395
291,AMAZONAS 3,-0.010640993855130674,-61.02682767372598,35781553.73979149
292,AZERSPACE 1,0.0038808763415136807,45.98190740424786,35782709.03676188
293,SBIRS GEO-2 (USA 241),0.012419326828981657,20.741335250326998,35779926.8942473
294,EUTELSAT 117 WEST A,0.008259574778514639,-116.81353145364507,35786142.812995866
295,ANIK G1,-0.02353554625161324,-107.33188074538853,35786286.73372156
296,CHINASAT 11 (ZX 11),-0.01896875178712877,97.9169865387843,35792535.258977674
297,EUTELSAT 7B,0.03432793912095844,7.0309278250985505,35791611.73247649
298,WGS F5 (USA 243),0.014120772470224216,-52.52095555790967,35787443.08844314
299,SES-6,0.009256683478845052,-40.51220803735091,35775763.26402006
300,IRNSS-1A,24.658843068820953,59.450579067067,35735917.07586064
301,MUOS-2,-1.1057691725880905,-176.74740360233716,36006893.45353382
302,ALPHASAT,0.4091088339848707,24.87758793839831,35777417.327059664
303,INSAT-3D,-0.03348538807439742,82.10246527738258,35786354.22368037
304,WGS F6 (USA 244),-0.026907968839877318,-135.20951278261157,35787130.00943953
305,ES'HAIL 1,0.0017531150405214256,25.533855284997713,35781029.48171645
306,GSAT-7,0.04881715406264072,73.99183483289256,35760585.0719304
307,AMOS-4,-0.002450094285231506,65.0578338276005,35788978.23825111
308,AEHF-3 (USA 246),-0.9538979452825977,146.37645629773144,35544988.25972427
309,ASTRA 2E,-0.004649852298863198,28.47742458159903,35782141.533275634
310,FM-6,0.02171006519956188,-116.16768541779301,35783759.38003463
311,RADUGA-1M 3,1.4087386023362238,34.96119400856246,35788395.15622221
312,SES-8,-0.010836805724573538,95.01739470836613,35794617.20934427
313,INMARSAT 5-F1,0.024499060364836206,62.569359475959594,35785447.922871664
314,TKSAT-1 (TUPAC KATARI),-0.00578579890210893,-87.20776918753714,35779996.99251891
315,EXPRESS-AM5,-0.015827383834329814,139.99995960194929,35786799.10252678
316,GSAT-14,0.015968761629489615,74.00023908570697,35773539.03593007
317,THAICOM 6,0.045787839944996286,78.54991785761577,35789690.56843654
318,TDRS 12,2.710241529298685,-40.80777502502811,35769466.54822795
319,ABS-2,-0.015021498734961381,74.92882091593755,35794869.484333634
320,ATHENA-FIDUS,0.03785599953162178,37.806401507751694,35785109.60344068
321,TURKSAT 4A,-0.03277477240812323,41.99002868070963,35775457.02641253
322,EXPRESS-AT1,0.004135589447360717,56.015409237938535,35783271.58699276
323,EXPRESS-AT2,0.004439779494376659,139.81798116559247,35784668.6191198
324,AMAZONAS 4A,0.01730311785448004,-73.98884284512873,35778713.197999254
325,ASTRA 5B,0.042493621591729286,31.524311455577305,35776573.47603586
326,IRNSS-1B,-22.494070429150376,59.0427455926253,35838355.098907195
327,LUCH 5V,-0.21254528750082022,94.77026637249492,35797438.49862429
328,KAZSAT-3,0.009134376529234212,58.49350683341672,35783544.0833002
329,EUTELSAT 3B,0.03797738814907889,3.0963321902999508,35765968.183985375
330,USA 254,-0.1199612668320294,173.0488526093375,35825605.59318424
331,ASIASAT 8 (AMOS-7),-0.029958138815740075,-3.880401009024374,35779994.361466765
332,ASIASAT 6,-0.017698598263250185,119.90619610917445,35788997.352318585
333,OPTUS 10,-0.009238913230344079,156.01578955577443,35803175.26908935
334,MEASAT-3B,-0.03267604884155925,91.53559998029885,35787079.026970446
335,LUCH (OLYMP),-0.020052885213891394,56.931186687099995,35787372.74560189
336,HIMAWARI-8,-0.015220843386837052,140.65632840512353,35788407.60137889
337,IRNSS-1C,2.3227829398666824,83.25187166590466,35777209.22111319
338,INTELSAT 30 (IS-30),0.003941513784169982,-95.05061516663532,35778640.826091334
339,ARSAT 1,0.019057969536423955,-71.82115904474632,35782162.434058055
340,EXPRESS-AM6,0.0016424841163736584,53.02476007965844,35781766.29854755
341,GSAT-16,-0.05984719007655009,55.15429722350572,35802065.575223446
342,DIRECTV 14,-0.027525159533855873,-99.20576490983734,35784179.39608641
343,YAMAL 401,-0.010073587893228833,89.85093802215717,35785808.29324959
344,ASTRA 2G,0.0092132361090372,28.23092385751424,35789544.11796417
345,FENGYUN 2G,0.1846137522774099,99.69007500181344,35786850.88108173
346,MUOS-3,1.4193595544664148,-15.819526970431854,35572864.113740124
347,INMARSAT 5-F2,0.026130399455373272,-55.003848414523254,35788756.719767556
348,ABS-3A,0.03726885217147611,-2.992530792633509,35790076.7691397
349,EUTELSAT 115 WEST B,0.0014332362785100404,-114.92526230678487,35786147.93570211
350,EXPRESS-AM7,0.0317474184257361,40.11647236268386,35780964.15954987
351,IRNSS-1D,2.1432426053300584,111.29298755446288,35874133.97674996
352,BEIDOU 17,-43.177598425861646,107.29094534946036,35868392.243763156
353,THOR 7,0.02038523486419559,-0.6482013049429789,35776533.62936449
354,TURKMENALEM52E/MONACOSAT,0.027130879571166087,52.033595934067044,35783457.39879296
355,DIRECTV 15,-0.01575738507396568,-102.82985433514217,35785597.32631407
356,SKY MEXICO-1,0.01672396525822979,-78.78857322202441,35781926.51189112
357,METEOSAT-11 (MSG-4),0.12649734401430485,-0.3189793737717013,35783558.02471916
358,STAR ONE C4,0.028203919356479923,-70.0190205130473,35778320.53370769
359,WGS F7 (USA 263),-0.037679139234330056,174.99930756036616,35787341.49162972
360,INTELSAT 34 (IS-34),0.01752950107506768,-55.49588839344482,35787027.85430157
361,EUTELSAT 8 WEST B,0.036765820144349225,-7.956802076827662,35772565.658569515
362,GSAT-6,-0.06420422739427649,82.60965131817757,35788674.50035796
363,INMARSAT 5-F3,-0.04783618012550671,179.58335569783972,35785641.12878605
364,MUOS-4,-2.316245950980996,74.49762352924861,35892821.568973854
365,TJS-1,-0.022930567145557305,154.92489298492387,35790149.18935254
366,EXPRESS-AM8,0.01352875432328727,-13.99590215161615,35785720.3738562
367,BEIDOU 20,-15.433643149017792,104.06326017110153,35960383.23720912
368,SKY MUSTER 1 (NBN1A),-0.025107709764427565,140.25190921902865,35793551.745295644
369,ARSAT 2,0.02132511554638928,-81.01642025653148,35780792.273894995
370,MORELOS 3,4.101698310743092,-113.1767811778297,35788932.79429981
371,APSTAR 9,-0.001765037893288428,141.97929309274534,35796126.98279356
372,TURKSAT 4B,0.02520129412009749,50.00472929432516,35782190.3259677
373,CHINASAT 2C (ZX 2C),-0.019584657222169646,103.43628777554409,35793557.782601275
374,GSAT-15,-0.04633054153047904,93.498051524556,35798135.437967844
375,BADR-7 (ARABSAT-6B),-0.033465298365215786,25.992165201180004,35763680.35565149
376,LAOSAT 1,-0.0009747746957054835,128.46940129821039,35790895.78055249
377,TELSTAR 12V,0.04272771457893681,-15.017421478557415,35779163.002719305
378,CHINASAT 1C (ZX 1C),1.066549112545858,81.43710840417118,35793189.8623338
379,ELEKTRO-L 2,1.8522885976557144,-14.590713907379634,35774849.80239278
380,COSMOS 2513,0.04540338624344419,80.27764718301373,35786906.830770634
381,EXPRESS-AMU1,0.032890179150997276,36.11186302658079,35778653.713816054
382,GAOFEN 4,-0.005964770355532171,105.6996957782466,35785379.672832124
383,BELINTERSAT-1,-0.003814942761071285,51.50863549639668,35787393.687113844
384,IRNSS-1E,-2.5454857707234866,111.14904633829785,35705434.74533923
385,EUTELSAT 9B,0.07202986309369035,8.94853320060998,35781262.79878045
386,SES-9,-0.016050828352156484,108.29660570991138,35793845.320434906
387,EUTELSAT 65 WEST A,0.05659854882777549,-65.22206958575377,35780249.51402342
388,IRNSS-1F,0.4210188468283646,32.59093214925677,35861252.76424062
389,BEIDOU IGSO-6,-17.91368262955115,84.94715477695253,35634683.15688441
390,IRNSS-1G,1.8455417721224616,129.47361052052327,35805683.93831954
391,JCSAT-2B,-0.03603930790958891,153.99797397849713,35794427.061129436
392,THAICOM 8,0.029348105481195035,78.58064569025393,35797945.89618402
393,INTELSAT 31 (IS-31),-0.0021670987661342764,-95.05281994862402,35791414.681417644
394,BEIDOU-2 G7,-0.7790379670392219,110.48732044747574,35821699.63499424
395,ABS-2A (MONGOLSAT-1),0.011677115330828334,74.68838938249738,35793470.51457217
396,EUTELSAT 117 WEST B,0.0009760594323596207,-117.02469688944225,35785291.44920378
397,BRISAT,-0.030257849980118486,150.50778822782766,35794639.380880386
398,ECHOSTAR 18,0.014941942818044578,-61.38719515798403,35781848.99590676
399,MUOS-5,5.871484826129648,-107.00174773799787,36126060.56460433
400,TIANTONG-1 1,-2.4694977728069802,101.37034774688226,35796879.39093335
401,JCSAT-16,-0.04787398623650398,135.10786267951877,35746464.486127906
402,USA 271,-0.13727017681637066,119.72197966724,35839071.721440256
403,INTELSAT 36 (IS-36),-0.0028174608549780167,68.46730463554255,35795346.60903434
404,INTELSAT 33E (IS-33E),-0.006637429855095945,60.000251882351044,35784760.02543555
405,INSAT-3DR,0.08012575971298973,73.93684471794943,35748615.43582925
406,GSAT-18,0.06124899869131022,73.99344184025213,35795445.339884415
407,SKY MUSTER 2 (NBN1B),0.016645883240793764,144.7854529144494,35792333.76839364
408,HIMAWARI-9,-0.028727755150262026,140.73330105240896,35787696.15964961
409,SHIJIAN-17 (SJ-17),-0.17944572039092974,117.53439385963148,35798395.64236858
410,GOES 16,-0.021153697574942128,-75.24922014188441,35785927.41404952
411,TIANLIAN 1-04,0.15986319386183356,176.6242799345199,35853873.14797361
412,WGS F8 (USA 272),-0.03631862429263743,149.80579724770072,35787558.68827294
413,FENGYUN 4A,-0.012082343886948446,104.54629065461566,35794334.81058134
414,ECHOSTAR 19,-0.011751126064216223,-97.11458120866045,35784959.262657195
415,JCSAT-15,-0.008801472764216842,110.07491774106877,35790087.18919696
416,STAR ONE D1,0.01403768046071642,-84.01736014720606,35780383.46334491
417,TJS-2,-0.3408556566715277,66.52002861353016,35771910.91716747
418,SBIRS GEO-4 (USA 273),2.244917994070969,-159.45280846938473,35792041.34463016
419,HISPASAT 36W-1,0.0037301810530089826,-35.98629906642235,35781610.999228396
420,TELKOM 3S,-0.01072386012200893,118.02009683959942,35794192.33017027
421,INTELSAT 32E (IS-32E),0.033775696706573745,-43.16916440712313,35788958.29307695
422,ECHOSTAR 23,0.013759974125542833,-67.9430810303887,35781565.54331406
423,WGS F9 (USA 275),0.05248939215454131,-11.987278905509891,35785204.44850195
424,SES-10,0.027546693648875523,-66.90331849414065,35776448.26976078
425,CHINASAT 16 (SJ-13),-0.02194260846312278,110.58341429926715,35771728.48325468
426,KOREASAT 7,-0.021389740566998033,115.9077697049749,35788565.894098386
427,SGDC,0.013241464261708594,-74.86669419887188,35779503.323152885
428,GSAT-9,-0.03704918631844909,97.3080231283591,35792821.21075576
429,INMARSAT 5-F4,0.024694351109857942,56.48664004760221,35784654.23087491
430,SES-15,0.0017025145521714908,-129.15721596457442,35787569.03058157
431,QZS-2 (MICHIBIKI-2),26.709917669199406,139.19087094850437,37793387.958989434
432,VIASAT-2,0.0019389562245723294,-69.90775110026753,35787090.68322134
433,EUTELSAT 172B,-0.009738825944397999,172.00073116842304,35785765.867248215
434,GSAT-19,-0.027087806621919317,47.941120800535884,35798367.512884595
435,ECHOSTAR 21,-3.1048693184145133,10.202032665948224,35780140.23686021
436,CHINASAT 9A (ZX 9A),-0.3568656318754597,167.18123174742587,35922475.41855661
437,BULGARIASAT-1,0.047345564199396895,1.9089754191043633,35777644.13315187
438,HELLAS-SAT 3,0.01683612949119541,39.01173867871161,35793911.29691604
439,GSAT-17,0.03838256776484854,93.51004189688015,35775788.75487731
440,INTELSAT 35E (IS-35E),0.014165824675863496,-34.48781045683206,35780809.563943304
441,COSMOS 2520,0.06424002659376016,45.08160385466051,35784230.97406529
442,TDRS 13,-0.021814527723236662,-11.331180106168281,35753418.44500195
443,QZS-3 (MICHIBIKI-3),0.0412457336390233,127.07059655153918,35787161.74525535
444,AMAZONAS 5,0.023284409215684147,-61.01635327192336,35780133.06935563
445,ASIASAT 9,-0.0249289837260821,122.09096728242153,35796675.17955623
446,INTELSAT 37E (IS-37E),-0.01804733403830207,-18.01675896504253,35774460.80579244
447,BSAT-4A,-0.04212271759784268,109.83968271160347,35796360.86061579
448,QZS-4 (MICHIBIKI-4),-35.0957711064119,148.7690473966247,32994276.88788237
449,SES-11 (ECHOSTAR 105),-0.01420430628877884,-104.97551420215437,35780992.33226623
450,KOREASAT 5A,-0.00455158238747708,113.15304762631884,35790441.33846635
451,ALCOMSAT 1,-0.042057686659312754,-24.79660577330782,35777266.33377489
452,SBIRS GEO-3 (USA 282),-1.1145816600737533,139.03380602497717,35795621.078760564
453,AL YAH 3,0.009831911446477548,-20.105682055456196,35778461.19387002
454,SES-14,0.03168701997265274,-47.51017991187095,35782989.53709834
455,GOES 17,0.03521393651598351,-137.20805714277762,35787554.336800426
456,HISPASAT 30W-6,0.05719530397692602,-29.963430496759916,35768914.53830853
457,SUPERBIRD 8,-0.02608657214951858,161.98403434372685,35789386.86341618
458,HYLAS 4,0.012818994067060812,-33.521834404991374,35770760.42440321
459,IRNSS-1I,26.185014243873912,58.08433409486575,35753778.24213453
460,USA 283,-0.028254013483578203,134.09533181914927,35786562.294432424
461,COSMOS 2526,-0.012845764486158732,128.0657316821741,35787254.44209059
462,APSTAR 6C,-0.01621243055758936,133.98890717302882,35793388.49180657
463,BANGABANDHUSAT-1,-0.011937987956814815,119.10977380313624,35792801.73005651
464,SES-12,-0.01017549892927308,94.98816662228887,35781605.61547326
465,FENGYUN 2H,0.2658538833230679,79.347682585414,35788900.60009328
466,BEIDOU IGSO-7,54.66263793655704,115.45521409670495,35900125.724961154
467,TELSTAR 19V,0.00028083588131187467,-63.04353531255362,35777910.91366846
468,TELKOM 4 (MERAH PUTIH),-0.0029548152202355424,107.9974549539886,35788922.59006653
469,TELSTAR 18V (APSTAR 5C),-0.02886237100921771,137.9934716155253,35794545.23030354
470,AZERSPACE 2 (IS-38),0.03180477442083711,45.13574882394485,35783844.31462755
471,HORIZONS 3E,0.0032974934336076032,168.98248494872848,35785716.45698408
472,AEHF-4 (USA 288),2.6406578397776888,-150.1626839408582,35795030.8863304
473,BEIDOU-3 G1,0.9627264315529801,139.97901729692612,35783921.834983
474,GSAT-29,0.0564595553317024,55.07051336009513,35786799.54976151
475,ES'HAIL 2,0.03928897657984283,25.771597932001228,35778550.14550182
476,GEO-KOMPSAT-2A,0.005819410588502179,128.2795434009707,35783084.94924295
477,GSAT-11,0.0005616233113162627,74.08068465558421,35804783.650026396
478,GSAT-7A,-0.05056095414063918,62.78866455101275,35788902.82909811
479,COSMOS 2533,0.03141660357171148,69.98174989351465,35786559.55871987
480,TJS-3,0.1444125678573484,87.7533575595649,35809060.63830668
481,TJS-3 AKM,-0.1281466293194629,59.02115559843348,35768800.18775178
482,CHINASAT 2D (ZX 2D),0.005725523059245069,129.97432853207283,35790105.23692421
483,HELLAS-SAT 4 & SGS-1,0.08425508652173745,39.07196578476497,35771431.22350843
484,GSAT-31,-0.009878304662366794,47.8666726135093,35779441.87149192
485,NUSANTARA SATU,-0.03309721851877301,146.0148176928262,35794158.96302382
486,CHINASAT 6C (ZX 6C),0.0008714771693454868,130.01905866969815,35778360.99289852
487,WGS 10 (USA 291),0.02259806311028908,60.320546361072225,35784355.25095072
488,TIANLIAN 2-01,-0.640311987404172,80.42292397669488,35807905.12182515
489,ARABSAT-6A,-0.02232278658377243,30.42146093166926,35766648.18273665
490,BEIDOU-3 IGSO-1,-32.71867709641336,98.96612484528043,35725410.79077765
491,BEIDOU-2 G8,-0.25038382212592997,144.44482118469165,35802170.085414305
492,YAMAL 601,0.03945843063719848,49.067797719657364,35782969.2487884
493,AT&T T-16,0.0033748104613053934,-100.80450299209869,35786022.5054239
494,EUTELSAT 7C,0.004794750901046827,7.049914991450581,35778167.254760064
495,BEIDOU-3 IGSO-2,54.69625668697995,111.59213464329189,35807425.45860413
496,COSMOS 2539,0.0632439535475029,12.017093033730289,35784203.78673569
497,EDRS-C,-0.0669071311188437,31.180726382301312,35787096.33678295
498,INTELSAT 39 (IS-39),0.0089132973072293,61.9301277195072,35788616.165493585
499,AMOS-17,0.00855469706787814,16.993304943308928,35779117.74214776
500,AEHF-5 (USA 292),-5.089019228907143,54.5557420202684,35786883.612299286
501,EUTELSAT 5 WEST B,0.02096446589100487,-4.966881108763626,35762571.32484926
502,MEV-1,-0.017544699170549998,-27.516077724288078,35783020.951294586
503,TJS-4,-0.024958713231792145,83.46808134622263,35790495.385673925
504,BEIDOU-3 IGSO-3,-25.399441999626962,119.25332634355183,35851323.439354815
505,TIBA-1,0.0008976518535396093,35.49300236734294,35781022.42211734
506,INMARSAT GX5,0.023754816226553635,11.013333099944887,35775220.58809001
507,JCSAT-18 (KACIFIC 1),-0.014659285123933186,149.98592259898922,35789411.69755096
508,ELEKTRO-L 3,0.023784562343215104,76.10379330409894,35781915.92429114
509,SHIJIAN-20 (SJ-20),0.14486781461538295,87.80998730806624,35807864.952884726
510,TJS-5,-0.09552710594487374,107.53298548300951,35797358.32862344
511,GSAT-30,0.02749513486559005,83.02297597881896,35804197.906934924
512,EUTELSAT KONNECT,0.0605156886713197,7.171520838987213,35779719.07865489
513,JCSAT-17,-4.61048271646593,136.17850264965682,35804035.36020904
514,GEO-KOMPSAT-2B,-0.009573340713220744,128.26794219151077,35793139.47796598
515,BEIDOU-3 G2,-2.363213000262411,80.06425374217312,35796583.061015785
516,AEHF-6 (USA 298),3.200977367468796,171.21634252630457,35897740.79657627
517,BEIDOU-3 G3,-0.9355693391998712,110.53489097589143,35757575.49915851
518,APSTAR 6D,-0.020697145994674742,133.95779932384863,35797774.62730769
519,KOREASAT 116,-0.021477273163182993,116.20809834346959,35787118.02230061
520,EXPRESS 103,-0.007127355382447443,96.48332793344049,35785481.55426491
521,EXPRESS 80,0.002582302378973636,79.9583447880994,35784216.96927182
522,BSAT-4B,0.03498543984543288,109.85109821398392,35797387.01724994
523,MEV-2,-0.020134379580988036,-0.9706604774341367,35781719.16739851
524,GALAXY 30 (G-30),-0.029023448210721663,-125.0005450422194,35788560.53290967
525,GAOFEN 13,0.060971248922936025,117.77440923099,35789243.869785056
526,TIANTONG-1 2,-0.863812426123379,124.94548911505564,35801544.80307127
527,LUCAS (JDRS-1),0.020101184521456594,90.7847388318749,35793748.50214299
528,SXM-7,-0.021826150804747865,-115.32036706076117,35781061.56740613
529,CMS-01,0.050700527117663874,83.0415175382448,35767680.400887586
530,TURKSAT 5A,0.03698964152363957,30.893460660026854,35787092.25185655
531,TIANTONG-1 3,-4.625481680366394,81.64372350083039,35791525.86947333
532,TJS-6,0.49934939993787447,178.5136776985294,35789869.44244253
533,SBIRS GEO-5 (USA 315),7.665212257197901,-119.1777734215611,35705947.36592373
534,FENGYUN 4B,0.02312288658026187,123.69759852155138,35784958.78441357
535,SXM-8,-0.054897012805600956,-120.48996879260243,35786229.944740474
536,TIANLIAN 1-05,-2.7126288354358357,10.836425650531112,35780321.98169427
